% program   : rnx2rtkp ver.demo5 b34i
% inp file  : /workspaces/emillma-sensorrig/datasets/april29/2024-04-29T11-25-24_navdata.26.obs
% inp file  : /workspaces/emillma-sensorrig/datasets/april29/2024-04-29T11-25-24_navdata.27.obs
% inp file  : /workspaces/emillma-sensorrig/src/graphnss/data/cpos/rnx3/1hour/1sec/2024/120/TRDS/TRDS00NOR_S_20241201100_01H_01S_MO.rnx.gz
% inp file  : /workspaces/emillma-sensorrig/src/graphnss/data/cpos/rnx3/1hour/1sec/2024/120/TRDS/TRDS00NOR_S_20241201100_01H_GN.rnx.gz
% inp file  : /workspaces/emillma-sensorrig/src/graphnss/data/cpos/rnx3/1hour/1sec/2024/120/TRDS/TRDS00NOR_S_20241201100_01H_EN.rnx.gz
% inp file  : /workspaces/emillma-sensorrig/src/graphnss/data/cpos/rnx3/1hour/1sec/2024/120/TRDS/TRDS00NOR_S_20241201100_01H_RN.rnx.gz
% inp file  : /workspaces/emillma-sensorrig/src/graphnss/data/cpos/rnx3/1hour/1sec/2024/120/TRDS/TRDS00NOR_S_20241201100_01H_CN.rnx.gz
% obs start : 2024/04/29 11:25:43.0 GPST (week2312 127542.9s)
% obs end   : 2024/04/29 11:26:57.0 GPST (week2312 127616.9s)
%
% (e/n/u-baseline=WGS84,Q=1:fix,2:float,3:sbas,4:dgps,5:single,6:ppp,ns=# of satellites)
%  GPST          e-baseline(m)  n-baseline(m)  u-baseline(m)   Q  ns   sde(m)   sdn(m)   sdu(m)  sden(m)  sdnu(m)  sdue(m) age(s)  ratio
2312 127542.950        -1.1929         0.2380        -1.1996   2  16   1.0150   1.1291   2.5087  -0.2838   0.8763   0.7631  -0.00    0.0
2312 127543.000        -1.2284         0.2272        -1.1903   2  16   0.7576   0.8530   1.8577  -0.2304   0.6427   0.5452  -0.00    0.0
2312 127543.050        -1.2479         0.2299        -1.1833   2  16   0.6308   0.7136   1.5420  -0.1975   0.5314   0.4459  -0.00    0.0
2312 127543.100        -1.2595         0.2308        -1.1827   2  16   0.5518   0.6258   1.3468  -0.1754   0.4631   0.3864  -0.00    0.0
2312 127543.150        -1.2610         0.2332        -1.1892   2  16   0.4966   0.5641   1.2108  -0.1592   0.4158   0.3456  -0.00    0.0
2312 127543.200        -1.2596         0.2335        -1.1961   2  16   0.4552   0.5176   1.1092  -0.1469   0.3805   0.3155  -0.00    0.0
2312 127543.250        -1.2619         0.2342        -1.2006   2  16   0.4227   0.4810   1.0294  -0.1370   0.3529   0.2921  -0.00    0.0
2312 127543.300        -1.2610         0.2338        -1.1984   2  16   0.3963   0.4512   0.9647  -0.1288   0.3306   0.2732  -0.00    0.0
2312 127543.350        -1.2620         0.2348        -1.1938   2  16   0.3743   0.4264   0.9109  -0.1220   0.3120   0.2576  -0.00    0.0
2312 127543.400        -1.2599         0.2363        -1.1853   2  16   0.3556   0.4052   0.8651  -0.1161   0.2962   0.2443  -0.00    0.0
2312 127543.450        -1.2593         0.2360        -1.1813   2  16   0.3394   0.3869   0.8256  -0.1110   0.2826   0.2330  -0.00    0.0
2312 127543.500        -1.2627         0.2379        -1.1745   2  16   0.3253   0.3709   0.7911  -0.1066   0.2707   0.2230  -0.00    0.0
2312 127543.550        -1.2665         0.2371        -1.1707   2  16   0.3128   0.3567   0.7606  -0.1026   0.2602   0.2143  -0.00    0.0
2312 127543.600        -1.2696         0.2360        -1.1656   2  16   0.3016   0.3440   0.7333  -0.0990   0.2508   0.2065  -0.00    0.0
2312 127543.650        -1.2729         0.2367        -1.1571   2  16   0.2916   0.3326   0.7088  -0.0958   0.2424   0.1994  -0.00    1.2
2312 127543.700        -1.2771         0.2372        -1.1502   2  16   0.2825   0.3223   0.6866  -0.0929   0.2347   0.1931  -0.00    1.0
2312 127543.750        -1.2823         0.2367        -1.1475   2  16   0.2742   0.3128   0.6663  -0.0902   0.2278   0.1873  -0.00    1.0
2312 127543.800        -1.2861         0.2363        -1.1400   2  16   0.2665   0.3042   0.6477  -0.0878   0.2214   0.1820  -0.00    1.2
2312 127543.850        -1.2904         0.2351        -1.1354   2  16   0.2595   0.2962   0.6306  -0.0855   0.2155   0.1772  -0.00    1.1
2312 127543.900        -1.2945         0.2342        -1.1319   2  16   0.2530   0.2888   0.6148  -0.0834   0.2101   0.1727  -0.00    1.0
2312 127543.950        -1.2977         0.2357        -1.1302   2  16   0.2470   0.2819   0.6001  -0.0815   0.2050   0.1685  -0.00    1.0
2312 127544.000        -1.2995         0.2357        -1.1309   2  16   0.2414   0.2756   0.5864  -0.0797   0.2003   0.1646  -0.00    1.1
2312 127544.050        -1.3022         0.2360        -1.1303   2  16   0.2362   0.2696   0.5736  -0.0780   0.1959   0.1610  -0.00    1.1
2312 127544.100        -1.3041         0.2346        -1.1310   2  16   0.2312   0.2640   0.5616  -0.0764   0.1918   0.1576  -0.00    1.3
2312 127544.150        -1.3064         0.2334        -1.1345   2  16   0.2266   0.2587   0.5503  -0.0749   0.1879   0.1544  -0.00    1.1
2312 127544.200        -1.3069         0.2334        -1.1353   2  16   0.2223   0.2537   0.5397  -0.0735   0.1842   0.1514  -0.00    1.2
2312 127544.250        -1.3077         0.2338        -1.1322   2  16   0.2182   0.2490   0.5296  -0.0721   0.1808   0.1485  -0.00    1.2
2312 127544.300        -1.3094         0.2335        -1.1256   2  16   0.2143   0.2446   0.5201  -0.0709   0.1775   0.1459  -0.00    1.0
2312 127544.350        -1.3114         0.2331        -1.1203   2  16   0.2106   0.2404   0.5111  -0.0697   0.1744   0.1433  -0.00    1.1
2312 127544.400        -1.3140         0.2319        -1.1197   2  16   0.2071   0.2364   0.5025  -0.0685   0.1715   0.1409  -0.00    1.0
2312 127544.450        -1.3167         0.2321        -1.1127   2  16   0.2037   0.2326   0.4944  -0.0675   0.1687   0.1386  -0.00    1.0
2312 127544.500        -1.3191         0.2349        -1.1050   2  16   0.2005   0.2289   0.4866  -0.0664   0.1660   0.1364  -0.00    1.2
2312 127544.550        -1.3206         0.2376        -1.0978   2  16   0.1975   0.2255   0.4792  -0.0654   0.1634   0.1343  -0.00    1.0
2312 127544.600        -1.3220         0.2395        -1.0929   2  16   0.1946   0.2222   0.4721  -0.0645   0.1610   0.1323  -0.00    1.1
2312 127544.650        -1.3231         0.2394        -1.0870   2  16   0.1918   0.2190   0.4653  -0.0636   0.1586   0.1304  -0.00    1.1
2312 127544.700        -1.3254         0.2398        -1.0820   2  16   0.1891   0.2159   0.4588  -0.0627   0.1564   0.1285  -0.00    1.1
2312 127544.750        -1.3285         0.2407        -1.0790   2  16   0.1866   0.2130   0.4526  -0.0619   0.1543   0.1268  -0.00    1.1
2312 127544.800        -1.3309         0.2420        -1.0737   2  16   0.1841   0.2102   0.4466  -0.0611   0.1522   0.1251  -0.00    1.4
2312 127544.850        -1.3325         0.2421        -1.0721   2  16   0.1818   0.2075   0.4408  -0.0603   0.1502   0.1235  -0.00    1.0
2312 127544.900        -1.3345         0.2425        -1.0691   2  16   0.1795   0.2049   0.4352  -0.0596   0.1483   0.1219  -0.00    1.2
2312 127544.950        -1.3369         0.2442        -1.0666   2  16   0.1773   0.2024   0.4299  -0.0589   0.1464   0.1204  -0.00    0.0
2312 127545.000        -1.3398         0.2442        -1.0689   2  16   0.1752   0.2000   0.4247  -0.0582   0.1446   0.1189  -0.00    1.1
2312 127545.050        -1.3413         0.2435        -1.0673   2  16   0.1732   0.1977   0.4197  -0.0575   0.1429   0.1175  -0.00    1.2
2312 127545.100        -1.3430         0.2435        -1.0614   2  16   0.1712   0.1954   0.4149  -0.0569   0.1413   0.1162  -0.00    1.0
2312 127545.150        -1.3434         0.2448        -1.0541   2  16   0.1693   0.1932   0.4102  -0.0563   0.1396   0.1149  -0.00    1.1
2312 127545.200        -1.3450         0.2460        -1.0443   2  16   0.1675   0.1911   0.4057  -0.0557   0.1381   0.1136  -0.00    1.2
2312 127545.250        -1.3471         0.2475        -1.0347   2  16   0.1657   0.1891   0.4014  -0.0551   0.1366   0.1124  -0.00    1.0
2312 127545.300        -1.3486         0.2484        -1.0324   2  16   0.1639   0.1871   0.3971  -0.0545   0.1351   0.1112  -0.00    1.1
2312 127545.350        -1.3490         0.2506        -1.0287   2  16   0.1623   0.1852   0.3930  -0.0540   0.1337   0.1100  -0.00    1.0
2312 127545.400        -1.3505         0.2518        -1.0239   2  16   0.1606   0.1833   0.3890  -0.0534   0.1323   0.1089  -0.00    1.1
2312 127545.450        -1.3517         0.2519        -1.0196   2  16   0.1591   0.1815   0.3852  -0.0529   0.1310   0.1078  -0.00    1.0
2312 127545.500        -1.3534         0.2523        -1.0165   2  16   0.1575   0.1798   0.3814  -0.0524   0.1297   0.1068  -0.00    1.0
2312 127545.550        -1.3548         0.2529        -1.0139   2  16   0.1561   0.1781   0.3778  -0.0519   0.1284   0.1057  -0.00    1.1
2312 127545.600        -1.3560         0.2545        -1.0109   2  16   0.1546   0.1764   0.3742  -0.0515   0.1272   0.1047  -0.00    1.1
2312 127545.650        -1.3569         0.2552        -1.0127   2  16   0.1532   0.1748   0.3708  -0.0510   0.1260   0.1038  -0.00    1.4
2312 127545.700        -1.3591         0.2560        -1.0115   2  16   0.1518   0.1732   0.3674  -0.0506   0.1248   0.1028  -0.00    1.1
2312 127545.750        -1.3609         0.2574        -1.0096   2  16   0.1505   0.1717   0.3641  -0.0501   0.1237   0.1019  -0.00    1.1
2312 127545.800        -1.3625         0.2585        -1.0061   2  16   0.1492   0.1702   0.3609  -0.0497   0.1225   0.1010  -0.00    1.0
2312 127545.850        -1.3637         0.2598        -1.0047   2  16   0.1479   0.1688   0.3578  -0.0493   0.1215   0.1001  -0.00    1.1
2312 127545.900        -1.3639         0.2606        -1.0011   2  16   0.1467   0.1674   0.3548  -0.0489   0.1204   0.0993  -0.00    1.0
2312 127545.950        -1.3637         0.2629        -0.9941   2  16   0.1455   0.1660   0.3518  -0.0485   0.1194   0.0984  -0.00    1.2
2312 127546.000        -1.3644         0.2643        -0.9847   2  16   0.1443   0.1646   0.3489  -0.0481   0.1184   0.0976  -0.00    1.0
2312 127546.050        -1.3652         0.2657        -0.9751   2  16   0.1432   0.1633   0.3461  -0.0478   0.1174   0.0968  -0.00    1.0
2312 127546.100        -1.3645         0.2662        -0.9703   2  16   0.1420   0.1620   0.3433  -0.0474   0.1164   0.0961  -0.00    1.0
2312 127546.150        -1.3651         0.2678        -0.9627   2  16   0.1409   0.1608   0.3406  -0.0471   0.1155   0.0954  -0.00    1.0
2312 127546.200        -1.3663         0.2688        -0.9583   2  16   0.1398   0.1595   0.3380  -0.0467   0.1146   0.0946  -0.00    1.0
2312 127546.250        -1.3674         0.2686        -0.9535   2  16   0.1388   0.1583   0.3354  -0.0464   0.1137   0.0939  -0.00    1.0
2312 127546.300        -1.3692         0.2686        -0.9476   2  16   0.1378   0.1572   0.3329  -0.0460   0.1128   0.0932  -0.00    1.0
2312 127546.350        -1.3703         0.2688        -0.9389   2  16   0.1368   0.1560   0.3304  -0.0457   0.1119   0.0925  -0.00    1.0
2312 127546.400        -1.3713         0.2708        -0.9313   2  16   0.1358   0.1549   0.3280  -0.0454   0.1111   0.0918  -0.00    1.4
2312 127546.450        -1.3722         0.2721        -0.9229   2  16   0.1348   0.1538   0.3257  -0.0451   0.1103   0.0911  -0.00    1.0
2312 127546.500        -1.3734         0.2723        -0.9150   2  16   0.1339   0.1527   0.3234  -0.0448   0.1094   0.0905  -0.00    1.0
2312 127546.550        -1.3748         0.2727        -0.9064   2  16   0.1330   0.1517   0.3211  -0.0445   0.1087   0.0899  -0.00    1.1
2312 127546.600        -1.3775         0.2726        -0.8987   2  16   0.1321   0.1506   0.3189  -0.0442   0.1079   0.0892  -0.00    1.1
2312 127546.650        -1.3781         0.2730        -0.8911   2  16   0.1312   0.1496   0.3167  -0.0439   0.1071   0.0886  -0.00    1.0
2312 127546.700        -1.3788         0.2748        -0.8845   2  16   0.1303   0.1486   0.3146  -0.0436   0.1064   0.0880  -0.00    1.1
2312 127546.750        -1.3806         0.2757        -0.8809   2  16   0.1295   0.1476   0.3125  -0.0434   0.1056   0.0874  -0.00    1.1
2312 127546.800        -1.3827         0.2760        -0.8770   2  16   0.1287   0.1467   0.3104  -0.0431   0.1049   0.0868  -0.00    1.1
2312 127546.850        -1.3836         0.2775        -0.8713   2  16   0.1279   0.1457   0.3084  -0.0428   0.1042   0.0863  -0.00    1.1
2312 127546.900        -1.3839         0.2788        -0.8666   2  16   0.1271   0.1448   0.3064  -0.0426   0.1035   0.0857  -0.00    1.1
2312 127546.950        -1.3849         0.2802        -0.8580   2  16   0.1263   0.1439   0.3045  -0.0423   0.1028   0.0852  -0.00    1.1
2312 127547.000        -1.3854         0.2810        -0.8492   2  16   0.1255   0.1430   0.3026  -0.0421   0.1021   0.0846  -0.00    1.1
2312 127547.050        -1.3857         0.2813        -0.8432   2  16   0.1247   0.1422   0.3007  -0.0418   0.1015   0.0841  -0.00    1.1
2312 127547.100        -1.3872         0.2819        -0.8391   2  16   0.1240   0.1413   0.2988  -0.0416   0.1008   0.0836  -0.00    1.1
2312 127547.150        -1.3878         0.2830        -0.8299   2  16   0.1233   0.1405   0.2970  -0.0414   0.1002   0.0831  -0.00    1.2
2312 127547.200        -1.3884         0.2855        -0.8197   2  16   0.1225   0.1396   0.2952  -0.0411   0.0996   0.0825  -0.00    1.4
2312 127547.250        -1.3885         0.2881        -0.8109   2  16   0.1218   0.1388   0.2935  -0.0409   0.0989   0.0821  -0.00    1.1
2312 127547.300        -1.3894         0.2893        -0.8067   2  16   0.1211   0.1380   0.2918  -0.0407   0.0983   0.0816  -0.00    1.1
2312 127547.350        -1.3900         0.2893        -0.8055   2  16   0.1205   0.1372   0.2901  -0.0405   0.0977   0.0811  -0.00    1.1
2312 127547.400        -1.3899         0.2900        -0.8009   2  16   0.1198   0.1365   0.2884  -0.0403   0.0971   0.0806  -0.00    1.2
2312 127547.450        -1.3907         0.2910        -0.7962   2  16   0.1191   0.1357   0.2868  -0.0401   0.0965   0.0802  -0.00    1.2
2312 127547.500        -1.3916         0.2929        -0.7908   2  16   0.1185   0.1349   0.2851  -0.0398   0.0960   0.0797  -0.00    1.0
2312 127547.550        -1.3916         0.2934        -0.7903   2  16   0.1178   0.1342   0.2835  -0.0396   0.0954   0.0793  -0.00    1.2
2312 127547.600        -1.3906         0.2940        -0.7888   2  16   0.1172   0.1335   0.2820  -0.0394   0.0949   0.0788  -0.00    1.1
2312 127547.650        -1.3894         0.2950        -0.7864   2  16   0.1166   0.1328   0.2804  -0.0392   0.0943   0.0784  -0.00    1.1
2312 127547.700        -1.3906         0.2962        -0.7844   2  16   0.1160   0.1321   0.2789  -0.0391   0.0938   0.0779  -0.00    1.2
2312 127547.750        -1.3921         0.2964        -0.7835   2  16   0.1154   0.1314   0.2774  -0.0389   0.0932   0.0775  -0.00    1.2
2312 127547.800        -1.3920         0.2962        -0.7813   2  16   0.1148   0.1307   0.2759  -0.0387   0.0927   0.0771  -0.00    1.2
2312 127547.850        -1.3933         0.2968        -0.7786   2  16   0.1142   0.1300   0.2745  -0.0385   0.0922   0.0767  -0.00    1.1
2312 127547.900        -1.3953         0.2979        -0.7787   2  16   0.1136   0.1294   0.2731  -0.0383   0.0917   0.0763  -0.00    1.3
2312 127547.950        -1.3972         0.2997        -0.7791   2  16   0.1131   0.1287   0.2717  -0.0381   0.0912   0.0759  -0.00    1.4
2312 127548.000        -1.3997         0.3014        -0.7822   2  16   0.1125   0.1281   0.2703  -0.0380   0.0907   0.0755  -0.00    1.1
2312 127548.050        -1.4014         0.3012        -0.7909   2  16   0.1120   0.1274   0.2689  -0.0378   0.0902   0.0751  -0.00    1.1
2312 127548.100        -1.4029         0.2994        -0.8009   2  15   0.1114   0.1268   0.2675  -0.0376   0.0897   0.0747  -0.00    1.0
2312 127548.150        -1.4036         0.2967        -0.8128   2  16   0.1109   0.1262   0.2662  -0.0374   0.0892   0.0744  -0.00    1.0
2312 127548.200        -1.4040         0.2946        -0.8224   2  16   0.1103   0.1256   0.2649  -0.0372   0.0887   0.0741  -0.00    1.0
2312 127548.250        -1.4023         0.2932        -0.8299   2  16   0.1098   0.1250   0.2636  -0.0371   0.0883   0.0737  -0.00    1.0
2312 127548.300        -1.4018         0.2931        -0.8354   2  15   0.1093   0.1244   0.2623  -0.0370   0.0878   0.0732  -0.00    1.0
2312 127548.350        -1.4020         0.2923        -0.8393   2  15   0.1089   0.1238   0.2611  -0.0368   0.0874   0.0728  -0.00    1.0
2312 127548.400        -1.4033         0.2910        -0.8421   2  15   0.1084   0.1232   0.2599  -0.0367   0.0870   0.0724  -0.00    1.0
2312 127548.450        -1.4045         0.2921        -0.8383   2  15   0.1079   0.1227   0.2587  -0.0366   0.0866   0.0720  -0.00    1.0
2312 127548.500        -1.4048         0.2927        -0.8349   2  15   0.1074   0.1221   0.2576  -0.0364   0.0862   0.0716  -0.00    1.0
2312 127548.550        -1.4048         0.2924        -0.8326   2  15   0.1070   0.1216   0.2564  -0.0363   0.0857   0.0711  -0.00    1.0
2312 127548.600        -1.4058         0.2933        -0.8293   2  15   0.1065   0.1210   0.2553  -0.0362   0.0853   0.0707  -0.00    1.0
2312 127548.650        -1.4057         0.2950        -0.8257   2  15   0.1061   0.1205   0.2541  -0.0361   0.0849   0.0703  -0.00    1.0
2312 127548.700        -1.4064         0.2952        -0.8267   2  15   0.1056   0.1200   0.2530  -0.0360   0.0845   0.0700  -0.00    1.3
2312 127548.750        -1.4068         0.2956        -0.8253   2  15   0.1052   0.1194   0.2519  -0.0358   0.0842   0.0696  -0.00    1.0
2312 127548.800        -1.4081         0.2966        -0.8221   2  15   0.1048   0.1189   0.2508  -0.0357   0.0838   0.0692  -0.00    1.0
2312 127548.850        -1.4084         0.2966        -0.8213   2  15   0.1044   0.1184   0.2498  -0.0356   0.0834   0.0688  -0.00    1.0
2312 127548.900        -1.4082         0.2979        -0.8191   2  15   0.1039   0.1179   0.2487  -0.0355   0.0830   0.0685  -0.00    1.0
2312 127548.950        -1.4087         0.2993        -0.8159   2  15   0.1035   0.1174   0.2476  -0.0354   0.0826   0.0681  -0.00    1.1
2312 127549.000        -1.4091         0.3000        -0.8108   2  15   0.1031   0.1169   0.2466  -0.0353   0.0823   0.0677  -0.00    1.0
2312 127549.050        -1.4093         0.3011        -0.8051   2  15   0.1027   0.1164   0.2456  -0.0351   0.0819   0.0674  -0.00    1.1
2312 127549.100        -1.4089         0.3009        -0.8031   2  15   0.1023   0.1159   0.2446  -0.0350   0.0815   0.0670  -0.00    1.0
2312 127549.150        -1.4075         0.3015        -0.8003   2  15   0.1019   0.1155   0.2436  -0.0349   0.0812   0.0667  -0.00    1.0
2312 127549.200        -1.4072         0.3037        -0.7966   2  15   0.1015   0.1150   0.2426  -0.0348   0.0808   0.0663  -0.00    1.1
2312 127549.250        -1.4059         0.3060        -0.7901   2  15   0.1011   0.1145   0.2416  -0.0347   0.0805   0.0660  -0.00    1.1
2312 127549.300        -1.4057         0.3076        -0.7857   2  15   0.1007   0.1141   0.2406  -0.0346   0.0801   0.0657  -0.00    1.1
2312 127549.350        -1.4053         0.3074        -0.7871   2  16   0.1003   0.1136   0.2396  -0.0345   0.0797   0.0654  -0.00    1.1
2312 127549.400        -1.4060         0.3069        -0.7888   2  16   0.0999   0.1132   0.2386  -0.0344   0.0794   0.0651  -0.00    1.1
2312 127549.450        -1.4066         0.3069        -0.7875   2  16   0.0996   0.1127   0.2376  -0.0342   0.0790   0.0649  -0.00    1.1
2312 127549.500        -1.4075         0.3078        -0.7826   2  16   0.0992   0.1123   0.2366  -0.0341   0.0786   0.0646  -0.00    1.4
2312 127549.550        -1.4080         0.3095        -0.7801   2  16   0.0988   0.1118   0.2357  -0.0340   0.0783   0.0644  -0.00    1.1
2312 127549.600        -1.4099         0.3108        -0.7789   2  16   0.0984   0.1114   0.2347  -0.0339   0.0779   0.0641  -0.00    1.1
2312 127549.650        -1.4108         0.3112        -0.7762   2  16   0.0981   0.1110   0.2338  -0.0338   0.0776   0.0639  -0.00    1.1
2312 127549.700        -1.4108         0.3110        -0.7755   2  16   0.0977   0.1106   0.2328  -0.0336   0.0772   0.0636  -0.00    1.1
2312 127549.750        -1.4110         0.3121        -0.7743   2  16   0.0973   0.1101   0.2319  -0.0335   0.0769   0.0634  -0.00    1.0
2312 127549.800        -1.4124         0.3126        -0.7769   2  16   0.0970   0.1097   0.2310  -0.0334   0.0766   0.0631  -0.00    1.1
2312 127549.850        -1.4126         0.3124        -0.7843   2  16   0.0966   0.1093   0.2301  -0.0333   0.0762   0.0629  -0.00    1.1
2312 127549.900        -1.4121         0.3118        -0.7887   2  16   0.0963   0.1089   0.2292  -0.0332   0.0759   0.0626  -0.00    1.1
2312 127549.950        -1.4113         0.3118        -0.7899   2  16   0.0959   0.1085   0.2283  -0.0331   0.0756   0.0624  -0.00    1.1
2312 127550.000        -1.4109         0.3126        -0.7910   2  16   0.0956   0.1081   0.2274  -0.0330   0.0752   0.0622  -0.00    1.0
2312 127550.050        -1.4106         0.3128        -0.7929   2  16   0.0953   0.1077   0.2266  -0.0329   0.0749   0.0619  -0.00    1.2
2312 127550.100        -1.4115         0.3132        -0.7958   2  16   0.0949   0.1073   0.2257  -0.0328   0.0746   0.0617  -0.00    1.0
2312 127550.150        -1.4117         0.3119        -0.8001   2  16   0.0946   0.1070   0.2249  -0.0327   0.0743   0.0615  -0.00    1.0
2312 127550.200        -1.4128         0.3115        -0.8043   2  16   0.0943   0.1066   0.2240  -0.0326   0.0740   0.0612  -0.00    1.0
2312 127550.250        -1.4132         0.3129        -0.8043   2  16   0.0939   0.1062   0.2232  -0.0325   0.0737   0.0610  -0.00    1.0
2312 127550.300        -1.4126         0.3144        -0.8040   2  16   0.0936   0.1058   0.2224  -0.0324   0.0733   0.0608  -0.00    1.4
2312 127550.350        -1.4127         0.3146        -0.8041   2  16   0.0933   0.1055   0.2215  -0.0323   0.0730   0.0606  -0.00    1.0
2312 127550.400        -1.4133         0.3140        -0.8054   2  16   0.0930   0.1051   0.2207  -0.0322   0.0727   0.0603  -0.00    1.0
2312 127550.450        -1.4137         0.3139        -0.8049   2  16   0.0927   0.1047   0.2199  -0.0321   0.0724   0.0601  -0.00    1.0
2312 127550.500        -1.4143         0.3143        -0.8039   2  16   0.0924   0.1044   0.2191  -0.0320   0.0721   0.0599  -0.00    1.1
2312 127550.550        -1.4138         0.3158        -0.8006   2  16   0.0921   0.1040   0.2183  -0.0319   0.0718   0.0597  -0.00    1.0
2312 127550.600        -1.4134         0.3170        -0.7959   2  16   0.0918   0.1037   0.2175  -0.0318   0.0715   0.0595  -0.00    1.0
2312 127550.650        -1.4128         0.3182        -0.7891   2  16   0.0915   0.1033   0.2168  -0.0317   0.0712   0.0593  -0.00    1.1
2312 127550.700        -1.4129         0.3172        -0.7873   2  16   0.0912   0.1030   0.2160  -0.0316   0.0710   0.0591  -0.00    1.0
2312 127550.750        -1.4129         0.3165        -0.7844   2  16   0.0909   0.1026   0.2152  -0.0315   0.0707   0.0589  -0.00    1.1
2312 127550.800        -1.4136         0.3157        -0.7813   2  16   0.0906   0.1023   0.2145  -0.0314   0.0704   0.0586  -0.00    1.1
2312 127550.850        -1.4156         0.3145        -0.7794   2  16   0.0903   0.1019   0.2137  -0.0314   0.0701   0.0584  -0.00    1.1
2312 127550.900        -1.4173         0.3146        -0.7773   2  16   0.0900   0.1016   0.2130  -0.0313   0.0698   0.0582  -0.00    1.1
2312 127550.950        -1.4183         0.3146        -0.7762   2  16   0.0897   0.1013   0.2122  -0.0312   0.0695   0.0580  -0.00    1.1
2312 127551.000        -1.4186         0.3143        -0.7761   2  16   0.0894   0.1010   0.2115  -0.0311   0.0693   0.0578  -0.00    1.1
2312 127551.050        -1.4185         0.3149        -0.7749   2  16   0.0892   0.1006   0.2108  -0.0310   0.0690   0.0576  -0.00    1.4
2312 127551.100        -1.4188         0.3148        -0.7758   2  16   0.0889   0.1003   0.2101  -0.0309   0.0687   0.0574  -0.00    1.0
2312 127551.150        -1.4195         0.3133        -0.7779   2  16   0.0886   0.1000   0.2094  -0.0308   0.0684   0.0573  -0.00    1.1
2312 127551.200        -1.4203         0.3120        -0.7813   2  16   0.0883   0.0997   0.2087  -0.0308   0.0682   0.0571  -0.00    1.1
2312 127551.250        -1.4211         0.3116        -0.7854   2  16   0.0881   0.0994   0.2080  -0.0307   0.0679   0.0569  -0.00    1.1
2312 127551.300        -1.4212         0.3112        -0.7874   2  16   0.0878   0.0990   0.2073  -0.0306   0.0676   0.0567  -0.00    1.0
2312 127551.350        -1.4215         0.3105        -0.7906   2  16   0.0875   0.0987   0.2066  -0.0305   0.0674   0.0565  -0.00    1.1
2312 127551.400        -1.4222         0.3093        -0.7946   2  16   0.0873   0.0984   0.2059  -0.0304   0.0671   0.0563  -0.00    1.1
2312 127551.450        -1.4231         0.3083        -0.7983   2  16   0.0870   0.0981   0.2052  -0.0304   0.0669   0.0561  -0.00    1.1
2312 127551.500        -1.4239         0.3086        -0.8008   2  16   0.0868   0.0978   0.2045  -0.0303   0.0666   0.0559  -0.00    1.1
2312 127551.550        -1.4244         0.3082        -0.8050   2  16   0.0865   0.0975   0.2039  -0.0302   0.0663   0.0558  -0.00    1.1
2312 127551.600        -1.4239         0.3076        -0.8089   2  16   0.0863   0.0972   0.2032  -0.0301   0.0661   0.0556  -0.00    1.1
2312 127551.650        -1.4242         0.3070        -0.8117   2  16   0.0860   0.0969   0.2025  -0.0301   0.0658   0.0554  -0.00    1.1
2312 127551.700        -1.4250         0.3060        -0.8142   2  16   0.0858   0.0966   0.2019  -0.0300   0.0656   0.0552  -0.00    1.1
2312 127551.750        -1.4251         0.3051        -0.8166   2  16   0.0855   0.0964   0.2012  -0.0299   0.0653   0.0550  -0.00    1.1
2312 127551.800        -1.4259         0.3040        -0.8229   2  16   0.0853   0.0961   0.2006  -0.0298   0.0651   0.0549  -0.00    1.1
2312 127551.850        -1.4279         0.3024        -0.8293   2  16   0.0850   0.0958   0.2000  -0.0298   0.0648   0.0547  -0.00    1.4
2312 127551.900        -1.4281         0.3002        -0.8339   2  16   0.0848   0.0955   0.1993  -0.0297   0.0646   0.0545  -0.00    1.1
2312 127551.950        -1.4284         0.2997        -0.8347   2  16   0.0845   0.0952   0.1987  -0.0296   0.0643   0.0543  -0.00    1.1
2312 127552.000        -1.4295         0.2990        -0.8339   2  16   0.0843   0.0950   0.1981  -0.0296   0.0641   0.0542  -0.00    1.1
2312 127552.050        -1.4298         0.2970        -0.8370   2  16   0.0841   0.0947   0.1975  -0.0295   0.0639   0.0540  -0.00    1.1
2312 127552.100        -1.4313         0.2971        -0.8376   2  16   0.0838   0.0944   0.1968  -0.0294   0.0636   0.0538  -0.00    1.1
2312 127552.150        -1.4317         0.2955        -0.8385   2  16   0.0836   0.0941   0.1962  -0.0294   0.0634   0.0537  -0.00    1.0
2312 127552.200        -1.4323         0.2955        -0.8356   2  16   0.0834   0.0939   0.1956  -0.0293   0.0631   0.0535  -0.00    1.1
2312 127552.250        -1.4327         0.2952        -0.8348   2  16   0.0832   0.0936   0.1950  -0.0292   0.0629   0.0533  -0.00    1.1
2312 127552.300        -1.4342         0.2937        -0.8371   2  16   0.0829   0.0933   0.1944  -0.0292   0.0627   0.0532  -0.00    1.1
2312 127552.350        -1.4360         0.2928        -0.8400   2  16   0.0827   0.0931   0.1938  -0.0291   0.0624   0.0530  -0.00    1.1
2312 127552.400        -1.4365         0.2912        -0.8428   2  16   0.0825   0.0928   0.1932  -0.0290   0.0622   0.0528  -0.00    1.1
2312 127552.450        -1.4369         0.2891        -0.8470   2  16   0.0823   0.0925   0.1927  -0.0290   0.0620   0.0527  -0.00    1.1
2312 127552.500        -1.4370         0.2881        -0.8491   2  16   0.0821   0.0923   0.1921  -0.0289   0.0618   0.0525  -0.00    1.1
2312 127552.550        -1.4382         0.2891        -0.8503   2  16   0.0818   0.0920   0.1915  -0.0288   0.0615   0.0524  -0.00    1.2
2312 127552.600        -1.4383         0.2902        -0.8511   2  16   0.0816   0.0918   0.1909  -0.0288   0.0613   0.0522  -0.00    1.4
2312 127552.650        -1.4384         0.2904        -0.8510   2  16   0.0814   0.0915   0.1904  -0.0287   0.0611   0.0520  -0.00    1.1
2312 127552.700        -1.4383         0.2901        -0.8539   2  16   0.0812   0.0913   0.1898  -0.0286   0.0609   0.0519  -0.00    1.1
2312 127552.750        -1.4376         0.2900        -0.8497   2  16   0.0810   0.0910   0.1892  -0.0286   0.0606   0.0517  -0.00    1.2
2312 127552.800        -1.4370         0.2897        -0.8463   2  16   0.0808   0.0908   0.1887  -0.0285   0.0604   0.0516  -0.00    1.1
2312 127552.850        -1.4372         0.2909        -0.8437   2  16   0.0806   0.0905   0.1881  -0.0285   0.0602   0.0514  -0.00    1.0
2312 127552.900        -1.4357         0.2921        -0.8381   2  16   0.0804   0.0903   0.1876  -0.0284   0.0600   0.0513  -0.00    1.1
2312 127552.950        -1.4350         0.2924        -0.8332   2  16   0.0802   0.0901   0.1870  -0.0283   0.0598   0.0511  -0.00    1.1
2312 127553.000        -1.4357         0.2929        -0.8300   2  16   0.0800   0.0898   0.1865  -0.0283   0.0596   0.0510  -0.00    1.0
2312 127553.050        -1.4365         0.2939        -0.8258   2  16   0.0798   0.0896   0.1860  -0.0282   0.0593   0.0508  -0.00    1.2
2312 127553.100        -1.4367         0.2966        -0.8207   2  16   0.0796   0.0893   0.1854  -0.0282   0.0591   0.0507  -0.00    1.2
2312 127553.150        -1.4374         0.2985        -0.8161   2  16   0.0794   0.0891   0.1849  -0.0281   0.0589   0.0505  -0.00    1.1
2312 127553.200        -1.4374         0.2984        -0.8121   2  16   0.0792   0.0889   0.1844  -0.0281   0.0587   0.0504  -0.00    1.1
2312 127553.250        -1.4380         0.2967        -0.8096   2  16   0.0790   0.0887   0.1838  -0.0280   0.0585   0.0502  -0.00    1.1
2312 127553.300        -1.4378         0.2948        -0.8087   2  16   0.0788   0.0884   0.1833  -0.0279   0.0583   0.0501  -0.00    1.2
2312 127553.350        -1.4380         0.2945        -0.8057   2  16   0.0786   0.0882   0.1828  -0.0279   0.0581   0.0500  -0.00    1.3
2312 127553.400        -1.4385         0.2944        -0.8020   2  16   0.0784   0.0880   0.1823  -0.0278   0.0579   0.0498  -0.00    1.4
2312 127553.450        -1.4382         0.2942        -0.7961   2  16   0.0782   0.0877   0.1818  -0.0278   0.0577   0.0497  -0.00    1.2
2312 127553.500        -1.4384         0.2937        -0.7927   2  16   0.0780   0.0875   0.1813  -0.0277   0.0575   0.0495  -0.00    1.1
2312 127553.550        -1.4380         0.2922        -0.7937   2  16   0.0778   0.0873   0.1807  -0.0277   0.0573   0.0494  -0.00    1.2
2312 127553.600        -1.4373         0.2912        -0.7929   2  16   0.0777   0.0871   0.1802  -0.0276   0.0571   0.0493  -0.00    1.2
2312 127553.650        -1.4374         0.2916        -0.7903   2  16   0.0775   0.0869   0.1797  -0.0276   0.0569   0.0491  -0.00    1.3
2312 127553.700        -1.4384         0.2918        -0.7890   2  16   0.0773   0.0866   0.1793  -0.0275   0.0567   0.0490  -0.00    1.0
2312 127553.750        -1.4386         0.2918        -0.7884   2  16   0.0771   0.0864   0.1788  -0.0275   0.0565   0.0488  -0.00    1.2
2312 127553.800        -1.4390         0.2911        -0.7874   2  16   0.0769   0.0862   0.1783  -0.0274   0.0563   0.0487  -0.00    1.2
2312 127553.850        -1.4384         0.2908        -0.7855   2  16   0.0768   0.0860   0.1778  -0.0274   0.0561   0.0486  -0.00    1.0
2312 127553.900        -1.4392         0.2923        -0.7793   2  16   0.0766   0.0858   0.1773  -0.0273   0.0559   0.0484  -0.00    1.2
2312 127553.950        -1.4389         0.2924        -0.7774   2  16   0.0764   0.0856   0.1768  -0.0273   0.0557   0.0483  -0.00    1.2
2312 127554.000        -1.4377         0.2908        -0.7752   2  16   0.0762   0.0854   0.1763  -0.0272   0.0555   0.0482  -0.00    1.2
2312 127554.050        -1.4378         0.2890        -0.7747   2  16   0.0760   0.0852   0.1759  -0.0272   0.0553   0.0480  -0.00    1.2
2312 127554.100        -1.4387         0.2874        -0.7739   2  16   0.0759   0.0850   0.1754  -0.0271   0.0551   0.0479  -0.00    1.4
2312 127554.150        -1.4392         0.2882        -0.7690   2  16   0.0757   0.0847   0.1749  -0.0271   0.0549   0.0478  -0.00    1.0
2312 127554.200        -1.4398         0.2889        -0.7612   2  16   0.0755   0.0845   0.1745  -0.0270   0.0547   0.0476  -0.00    1.1
2312 127554.250        -1.4413         0.2890        -0.7569   2  16   0.0754   0.0843   0.1740  -0.0270   0.0545   0.0475  -0.00    1.2
2312 127554.300        -1.4424         0.2893        -0.7542   2  16   0.0752   0.0841   0.1735  -0.0269   0.0543   0.0473  -0.00    1.1
2312 127554.350        -1.4432         0.2903        -0.7491   2  16   0.0750   0.0839   0.1731  -0.0269   0.0542   0.0472  -0.00    1.1
2312 127554.400        -1.4431         0.2901        -0.7453   2  16   0.0749   0.0837   0.1726  -0.0269   0.0540   0.0471  -0.00    1.2
2312 127554.450        -1.4433         0.2906        -0.7411   2  16   0.0747   0.0835   0.1722  -0.0268   0.0538   0.0470  -0.00    1.2
2312 127554.500        -1.4431         0.2919        -0.7342   2  16   0.0745   0.0834   0.1717  -0.0268   0.0536   0.0468  -0.00    1.2
2312 127554.550        -1.4439         0.2938        -0.7296   2  16   0.0744   0.0832   0.1713  -0.0267   0.0534   0.0467  -0.00    1.3
2312 127554.600        -1.4438         0.2945        -0.7259   2  16   0.0742   0.0830   0.1708  -0.0267   0.0533   0.0466  -0.00    1.3
2312 127554.650        -1.4445         0.2955        -0.7201   2  16   0.0741   0.0828   0.1704  -0.0266   0.0531   0.0464  -0.00    1.3
2312 127554.700        -1.4463         0.2969        -0.7164   2  16   0.0739   0.0826   0.1700  -0.0266   0.0529   0.0463  -0.00    1.0
2312 127554.750        -1.4484         0.2975        -0.7133   2  16   0.0737   0.0824   0.1695  -0.0266   0.0527   0.0462  -0.00    1.1
2312 127554.800        -1.4489         0.2982        -0.7072   2  16   0.0736   0.0822   0.1691  -0.0265   0.0526   0.0461  -0.00    1.2
2312 127554.850        -1.4491         0.2983        -0.7046   2  16   0.0734   0.0820   0.1687  -0.0265   0.0524   0.0459  -0.00    1.1
2312 127554.900        -1.4482         0.2970        -0.7052   2  16   0.0733   0.0818   0.1682  -0.0264   0.0522   0.0458  -0.00    1.4
2312 127554.950        -1.4475         0.2968        -0.7052   2  16   0.0731   0.0817   0.1678  -0.0264   0.0520   0.0457  -0.00    1.1
2312 127555.000        -1.4471         0.2961        -0.7070   2  16   0.0730   0.0815   0.1674  -0.0264   0.0519   0.0456  -0.00    1.2
2312 127555.050        -1.4463         0.2957        -0.7070   2  16   0.0728   0.0813   0.1670  -0.0263   0.0517   0.0455  -0.00    1.2
2312 127555.100        -1.4457         0.2958        -0.7069   2  16   0.0726   0.0811   0.1665  -0.0263   0.0515   0.0453  -0.00    1.2
2312 127555.150        -1.4445         0.2960        -0.7063   2  16   0.0725   0.0809   0.1661  -0.0262   0.0513   0.0452  -0.00    1.2
2312 127555.200        -1.4434         0.2956        -0.7053   2  16   0.0723   0.0807   0.1657  -0.0262   0.0512   0.0451  -0.00    1.2
2312 127555.250        -1.4439         0.2953        -0.7045   2  16   0.0722   0.0806   0.1653  -0.0262   0.0510   0.0450  -0.00    1.2
2312 127555.300        -1.4439         0.2944        -0.7054   2  16   0.0720   0.0804   0.1649  -0.0261   0.0508   0.0449  -0.00    1.3
2312 127555.350        -1.4430         0.2939        -0.7054   2  16   0.0719   0.0802   0.1645  -0.0261   0.0507   0.0447  -0.00    1.3
2312 127555.400        -1.4420         0.2939        -0.7039   2  16   0.0718   0.0800   0.1641  -0.0260   0.0505   0.0446  -0.00    1.4
2312 127555.450        -1.4415         0.2950        -0.7007   2  16   0.0716   0.0799   0.1637  -0.0260   0.0503   0.0445  -0.00    1.3
2312 127555.500        -1.4417         0.2955        -0.6994   2  16   0.0715   0.0797   0.1633  -0.0260   0.0502   0.0444  -0.00    1.2
2312 127555.550        -1.4419         0.2965        -0.6989   2  16   0.0713   0.0795   0.1629  -0.0259   0.0500   0.0443  -0.00    1.2
2312 127555.600        -1.4420         0.2960        -0.6998   2  16   0.0712   0.0793   0.1625  -0.0259   0.0498   0.0442  -0.00    1.4
2312 127555.650        -1.4419         0.2959        -0.7015   2  16   0.0710   0.0792   0.1621  -0.0259   0.0497   0.0440  -0.00    1.2
2312 127555.700        -1.4407         0.2958        -0.7044   2  16   0.0709   0.0790   0.1617  -0.0258   0.0495   0.0439  -0.00    1.3
2312 127555.750        -1.4402         0.2955        -0.7067   2  16   0.0708   0.0788   0.1613  -0.0258   0.0493   0.0438  -0.00    1.2
2312 127555.800        -1.4392         0.2947        -0.7095   2  16   0.0706   0.0787   0.1609  -0.0258   0.0492   0.0437  -0.00    1.2
2312 127555.850        -1.4390         0.2950        -0.7085   2  16   0.0705   0.0785   0.1605  -0.0257   0.0490   0.0436  -0.00    1.0
2312 127555.900        -1.4384         0.2959        -0.7049   2  16   0.0703   0.0783   0.1601  -0.0257   0.0489   0.0435  -0.00    1.0
2312 127555.950        -1.4376         0.2972        -0.6984   2  16   0.0702   0.0782   0.1597  -0.0256   0.0487   0.0434  -0.00    1.0
2312 127556.000        -1.4381         0.2973        -0.6970   2  16   0.0701   0.0780   0.1593  -0.0256   0.0485   0.0433  -0.00    1.0
2312 127556.050        -1.4378         0.2982        -0.6939   2  16   0.0699   0.0778   0.1590  -0.0256   0.0484   0.0431  -0.00    1.0
2312 127556.100        -1.4371         0.2987        -0.6905   2  16   0.0698   0.0777   0.1586  -0.0255   0.0482   0.0430  -0.00    1.0
2312 127556.150        -1.4369         0.2998        -0.6881   2  16   0.0697   0.0775   0.1582  -0.0255   0.0481   0.0429  -0.00    1.0
2312 127556.200        -1.4365         0.3003        -0.6885   2  16   0.0695   0.0773   0.1578  -0.0255   0.0479   0.0428  -0.00    1.1
2312 127556.250        -1.4365         0.3003        -0.6890   2  16   0.0694   0.0772   0.1575  -0.0254   0.0477   0.0427  -0.00    1.1
2312 127556.300        -1.4357         0.3017        -0.6856   2  16   0.0693   0.0770   0.1571  -0.0254   0.0476   0.0426  -0.00    1.1
2312 127556.350        -1.4346         0.3020        -0.6790   2  16   0.0691   0.0769   0.1567  -0.0254   0.0474   0.0425  -0.00    1.1
2312 127556.400        -1.4325         0.3021        -0.6746   2  16   0.0690   0.0767   0.1563  -0.0253   0.0473   0.0424  -0.00    1.2
2312 127556.450        -1.4318         0.3023        -0.6742   2  16   0.0689   0.0766   0.1560  -0.0253   0.0471   0.0423  -0.00    1.2
2312 127556.500        -1.4309         0.3019        -0.6754   2  16   0.0687   0.0764   0.1556  -0.0253   0.0470   0.0422  -0.00    1.2
2312 127556.550        -1.4294         0.2997        -0.6763   2  16   0.0686   0.0762   0.1553  -0.0252   0.0468   0.0421  -0.00    1.2
2312 127556.600        -1.4288         0.3007        -0.6741   2  16   0.0685   0.0761   0.1549  -0.0252   0.0467   0.0420  -0.00    1.2
2312 127556.650        -1.4278         0.3021        -0.6706   2  16   0.0684   0.0759   0.1545  -0.0252   0.0465   0.0419  -0.00    1.1
2312 127556.700        -1.4275         0.3030        -0.6703   2  16   0.0682   0.0758   0.1542  -0.0252   0.0464   0.0418  -0.00    1.3
2312 127556.750        -1.4273         0.3016        -0.6742   2  16   0.0681   0.0756   0.1538  -0.0251   0.0462   0.0417  -0.00    1.3
2312 127556.800        -1.4265         0.3013        -0.6768   2  16   0.0680   0.0755   0.1535  -0.0251   0.0461   0.0415  -0.00    1.3
2312 127556.850        -1.4246         0.3014        -0.6765   2  16   0.0678   0.0753   0.1531  -0.0251   0.0459   0.0414  -0.00    1.3
2312 127556.900        -1.4252         0.3010        -0.6784   2  16   0.0677   0.0752   0.1528  -0.0250   0.0458   0.0413  -0.00    1.3
2312 127556.950        -1.4248         0.3006        -0.6790   2  16   0.0676   0.0750   0.1524  -0.0250   0.0456   0.0412  -0.00    1.4
2312 127557.000        -1.4236         0.3007        -0.6789   2  16   0.0675   0.0749   0.1521  -0.0250   0.0455   0.0411  -0.00    1.3
2312 127557.050        -1.4225         0.3000        -0.6762   2  16   0.0674   0.0747   0.1517  -0.0249   0.0453   0.0410  -0.00    1.4
2312 127557.100        -1.4222         0.2996        -0.6741   2  16   0.0672   0.0746   0.1514  -0.0249   0.0452   0.0409  -0.00    1.3
2312 127557.150        -1.4225         0.2998        -0.6730   2  16   0.0671   0.0744   0.1510  -0.0249   0.0450   0.0408  -0.00    1.4
2312 127557.200        -1.4219         0.2998        -0.6743   2  16   0.0670   0.0743   0.1507  -0.0248   0.0449   0.0407  -0.00    1.5
2312 127557.250        -1.4207         0.2998        -0.6726   2  16   0.0669   0.0741   0.1504  -0.0248   0.0447   0.0406  -0.00    1.4
2312 127557.300        -1.4192         0.2995        -0.6748   2  16   0.0668   0.0740   0.1500  -0.0248   0.0446   0.0405  -0.00    1.4
2312 127557.350        -1.4173         0.2990        -0.6756   2  16   0.0666   0.0739   0.1497  -0.0248   0.0444   0.0404  -0.00    1.3
2312 127557.400        -1.4165         0.2989        -0.6757   2  16   0.0665   0.0737   0.1494  -0.0247   0.0443   0.0403  -0.00    1.5
2312 127557.450        -1.4151         0.2996        -0.6764   2  16   0.0664   0.0736   0.1490  -0.0247   0.0441   0.0402  -0.00    1.4
2312 127557.500        -1.4128         0.3004        -0.6775   2  16   0.0663   0.0734   0.1487  -0.0247   0.0440   0.0401  -0.00    1.4
2312 127557.550        -1.4114         0.3004        -0.6788   2  16   0.0662   0.0733   0.1484  -0.0246   0.0439   0.0401  -0.00    1.5
2312 127557.600        -1.4097         0.3002        -0.6772   2  16   0.0661   0.0732   0.1480  -0.0246   0.0437   0.0400  -0.00    1.5
2312 127557.650        -1.4087         0.2988        -0.6796   2  16   0.0659   0.0730   0.1477  -0.0246   0.0436   0.0399  -0.00    1.5
2312 127557.700        -1.4080         0.2974        -0.6824   2  16   0.0658   0.0729   0.1474  -0.0246   0.0434   0.0398  -0.00    1.5
2312 127557.750        -1.4079         0.2959        -0.6846   2  16   0.0657   0.0727   0.1470  -0.0245   0.0433   0.0397  -0.00    1.6
2312 127557.800        -1.4067         0.2968        -0.6845   2  16   0.0656   0.0726   0.1467  -0.0245   0.0431   0.0396  -0.00    1.5
2312 127557.850        -1.4058         0.2975        -0.6871   2  16   0.0655   0.0725   0.1464  -0.0245   0.0430   0.0395  -0.00    1.5
2312 127557.900        -1.4050         0.2967        -0.6885   2  16   0.0654   0.0723   0.1461  -0.0244   0.0429   0.0394  -0.00    1.5
2312 127557.950        -1.4043         0.2970        -0.6889   2  16   0.0653   0.0722   0.1458  -0.0244   0.0427   0.0393  -0.00    1.6
2312 127558.000        -1.4038         0.2968        -0.6897   2  16   0.0652   0.0721   0.1454  -0.0244   0.0426   0.0392  -0.00    1.7
2312 127558.050        -1.4021         0.2967        -0.6909   2  16   0.0650   0.0719   0.1451  -0.0244   0.0424   0.0391  -0.00    1.5
2312 127558.100        -1.4011         0.2966        -0.6930   2  16   0.0649   0.0718   0.1448  -0.0243   0.0423   0.0390  -0.00    1.0
2312 127558.150        -1.4001         0.2969        -0.6942   2  16   0.0648   0.0717   0.1445  -0.0243   0.0422   0.0389  -0.00    1.0
2312 127558.200        -1.3987         0.2963        -0.6947   2  16   0.0647   0.0715   0.1442  -0.0243   0.0420   0.0388  -0.00    1.0
2312 127558.250        -1.3974         0.2966        -0.6948   2  16   0.0646   0.0714   0.1439  -0.0243   0.0419   0.0387  -0.00    1.1
2312 127558.300        -1.3963         0.2969        -0.6945   2  16   0.0645   0.0713   0.1436  -0.0242   0.0417   0.0386  -0.00    1.1
2312 127558.350        -1.3952         0.2965        -0.6924   2  16   0.0644   0.0711   0.1433  -0.0242   0.0416   0.0386  -0.00    1.1
2312 127558.400        -1.3938         0.2966        -0.6886   2  16   0.0643   0.0710   0.1429  -0.0242   0.0415   0.0385  -0.00    1.2
2312 127558.450        -1.3922         0.2962        -0.6887   2  16   0.0642   0.0709   0.1426  -0.0242   0.0413   0.0384  -0.00    1.2
2312 127558.500        -1.3897         0.2957        -0.6886   2  16   0.0641   0.0707   0.1423  -0.0241   0.0412   0.0383  -0.00    1.2
2312 127558.550        -1.3882         0.2958        -0.6898   2  16   0.0640   0.0706   0.1420  -0.0241   0.0411   0.0382  -0.00    1.2
2312 127558.600        -1.3877         0.2960        -0.6916   2  16   0.0639   0.0705   0.1417  -0.0241   0.0409   0.0381  -0.00    1.3
2312 127558.650        -1.3860         0.2961        -0.6926   2  16   0.0638   0.0704   0.1414  -0.0241   0.0408   0.0380  -0.00    1.3
2312 127558.700        -1.3840         0.2967        -0.6898   2  16   0.0637   0.0702   0.1411  -0.0240   0.0407   0.0379  -0.00    1.3
2312 127558.750        -1.3830         0.2967        -0.6895   2  16   0.0636   0.0701   0.1408  -0.0240   0.0405   0.0378  -0.00    1.8
2312 127558.800        -1.3821         0.2973        -0.6879   2  16   0.0634   0.0700   0.1405  -0.0240   0.0404   0.0377  -0.00    1.3
2312 127558.850        -1.3810         0.2977        -0.6869   2  16   0.0633   0.0698   0.1402  -0.0240   0.0403   0.0377  -0.00    1.3
2312 127558.900        -1.3797         0.2978        -0.6854   2  16   0.0632   0.0697   0.1399  -0.0239   0.0401   0.0376  -0.00    1.8
2312 127558.950        -1.3778         0.2986        -0.6819   2  16   0.0631   0.0696   0.1396  -0.0239   0.0400   0.0375  -0.00    1.6
2312 127559.000        -1.3765         0.2989        -0.6792   2  16   0.0630   0.0695   0.1393  -0.0239   0.0399   0.0374  -0.00    1.6
2312 127559.050        -1.3750         0.2990        -0.6780   2  16   0.0629   0.0694   0.1391  -0.0239   0.0397   0.0373  -0.00    1.6
2312 127559.100        -1.3732         0.2981        -0.6752   2  16   0.0628   0.0692   0.1388  -0.0238   0.0396   0.0372  -0.00    1.7
2312 127559.150        -1.3708         0.2983        -0.6722   2  16   0.0627   0.0691   0.1385  -0.0238   0.0395   0.0371  -0.00    1.7
2312 127559.200        -1.3689         0.2992        -0.6710   2  16   0.0626   0.0690   0.1382  -0.0238   0.0393   0.0371  -0.00    1.7
2312 127559.250        -1.3671         0.2997        -0.6677   2  16   0.0625   0.0689   0.1379  -0.0238   0.0392   0.0370  -0.00    1.8
2312 127559.300        -1.3652         0.2998        -0.6636   2  16   0.0625   0.0687   0.1376  -0.0237   0.0391   0.0369  -0.00    1.7
2312 127559.350        -1.3644         0.2985        -0.6626   2  16   0.0624   0.0686   0.1373  -0.0237   0.0389   0.0368  -0.00    1.7
2312 127559.400        -1.3639         0.2986        -0.6606   2  16   0.0623   0.0685   0.1370  -0.0237   0.0388   0.0367  -0.00    1.6
2312 127559.450        -1.3622         0.2999        -0.6569   2  16   0.0622   0.0684   0.1368  -0.0237   0.0387   0.0366  -0.00    1.8
2312 127559.500        -1.3609         0.3005        -0.6538   2  16   0.0621   0.0683   0.1365  -0.0236   0.0386   0.0366  -0.00    1.9
2312 127559.550        -1.3597         0.3000        -0.6540   2  16   0.0620   0.0681   0.1362  -0.0236   0.0384   0.0365  -0.00    1.7
2312 127559.600        -1.3585         0.2990        -0.6533   2  16   0.0619   0.0680   0.1359  -0.0236   0.0383   0.0364  -0.00    1.6
2312 127559.650        -1.3579         0.2971        -0.6577   2  16   0.0618   0.0679   0.1356  -0.0236   0.0382   0.0363  -0.00    1.7
2312 127559.700        -1.3572         0.2960        -0.6641   2  16   0.0617   0.0678   0.1354  -0.0236   0.0380   0.0362  -0.00    1.6
2312 127559.750        -1.3558         0.2964        -0.6675   2  16   0.0616   0.0677   0.1351  -0.0235   0.0379   0.0361  -0.00    1.9
2312 127559.800        -1.3549         0.2975        -0.6709   2  16   0.0615   0.0676   0.1348  -0.0235   0.0378   0.0361  -0.00    1.6
2312 127559.850        -1.3541         0.2986        -0.6736   2  16   0.0614   0.0675   0.1345  -0.0235   0.0377   0.0360  -0.00    1.7
2312 127559.900        -1.3539         0.3003        -0.6739   2  16   0.0613   0.0673   0.1343  -0.0235   0.0375   0.0359  -0.00    1.7
2312 127559.950        -1.3545         0.3007        -0.6723   2  16   0.0612   0.0672   0.1340  -0.0234   0.0374   0.0358  -0.00    1.7
2312 127560.000        -1.3547         0.3002        -0.6708   2  16   0.0611   0.0671   0.1337  -0.0234   0.0373   0.0357  -0.00    1.8
2312 127560.050        -1.3536         0.2997        -0.6692   2  16   0.0610   0.0670   0.1334  -0.0234   0.0372   0.0357  -0.00    1.0
2312 127560.100        -1.3528         0.3000        -0.6715   2  16   0.0609   0.0669   0.1332  -0.0234   0.0370   0.0356  -0.00    1.0
2312 127560.150        -1.3510         0.3010        -0.6721   2  16   0.0608   0.0668   0.1329  -0.0234   0.0369   0.0355  -0.00    1.0
2312 127560.200        -1.3493         0.3020        -0.6724   2  16   0.0608   0.0667   0.1326  -0.0233   0.0368   0.0354  -0.00    1.0
2312 127560.250        -1.3479         0.3019        -0.6745   2  16   0.0607   0.0665   0.1324  -0.0233   0.0367   0.0353  -0.00    1.8
2312 127560.300        -1.3473         0.3016        -0.6770   2  16   0.0606   0.0664   0.1321  -0.0233   0.0365   0.0353  -0.00    1.8
2312 127560.350        -1.0403         0.2750         0.0186   1  16   0.0024   0.0026   0.0037  -0.0008   0.0012   0.0009  -0.00    5.1
2312 127560.400        -1.0399         0.2749         0.0160   1  16   0.0024   0.0026   0.0037  -0.0008   0.0012   0.0009  -0.00    5.1
2312 127560.450        -1.0386         0.2738         0.0130   1  16   0.0024   0.0026   0.0037  -0.0008   0.0012   0.0009  -0.00    5.1
2312 127560.500        -1.0378         0.2733         0.0103   1  16   0.0024   0.0026   0.0037  -0.0008   0.0012   0.0009  -0.00    5.1
2312 127560.550        -1.0373         0.2727         0.0088   1  16   0.0024   0.0026   0.0037  -0.0008   0.0012   0.0009  -0.00    5.2
2312 127560.600        -1.0376         0.2725         0.0068   1  16   0.0024   0.0026   0.0037  -0.0008   0.0012   0.0009  -0.00    5.2
2312 127560.650        -1.0381         0.2726         0.0039   1  16   0.0024   0.0026   0.0037  -0.0008   0.0012   0.0009  -0.00    5.2
2312 127560.700        -1.0388         0.2725         0.0014   1  16   0.0024   0.0026   0.0037  -0.0008   0.0012   0.0009  -0.00    5.2
2312 127560.750        -1.0399         0.2717        -0.0012   1  16   0.0024   0.0026   0.0037  -0.0008   0.0012   0.0009  -0.00    5.3
2312 127560.800        -1.0401         0.2708        -0.0034   1  16   0.0024   0.0026   0.0037  -0.0008   0.0012   0.0009  -0.00    5.3
2312 127560.850        -1.0409         0.2704        -0.0070   1  16   0.0024   0.0026   0.0037  -0.0008   0.0012   0.0009  -0.00    5.3
2312 127560.900        -1.0414         0.2695        -0.0100   1  16   0.0024   0.0026   0.0037  -0.0008   0.0012   0.0009  -0.00    5.3
2312 127560.950        -1.0414         0.2691        -0.0139   1  16   0.0024   0.0026   0.0037  -0.0008   0.0012   0.0009  -0.00    5.3
2312 127561.000        -1.0416         0.2695        -0.0173   1  16   0.0024   0.0026   0.0037  -0.0008   0.0012   0.0009  -0.00    5.4
2312 127561.050        -1.0417         0.2695        -0.0214   1  16   0.0024   0.0026   0.0037  -0.0008   0.0012   0.0009  -0.00    5.4
2312 127561.100        -1.0413         0.2687        -0.0251   1  16   0.0024   0.0026   0.0037  -0.0008   0.0012   0.0009  -0.00    5.4
2312 127561.150        -1.0409         0.2677        -0.0280   1  16   0.0024   0.0026   0.0037  -0.0008   0.0012   0.0009  -0.00    5.4
2312 127561.200        -1.0407         0.2673        -0.0297   1  16   0.0024   0.0026   0.0037  -0.0008   0.0012   0.0009  -0.00    5.5
2312 127561.250        -1.0406         0.2673        -0.0298   1  16   0.0024   0.0026   0.0037  -0.0008   0.0012   0.0009  -0.00    5.5
2312 127561.300        -1.0406         0.2678        -0.0289   1  16   0.0024   0.0026   0.0037  -0.0008   0.0012   0.0009  -0.00    5.5
2312 127561.350        -1.0406         0.2687        -0.0267   1  16   0.0024   0.0026   0.0037  -0.0008   0.0012   0.0009  -0.00    5.6
2312 127561.400        -1.0405         0.2704        -0.0254   1  16   0.0024   0.0026   0.0037  -0.0008   0.0012   0.0009  -0.00    5.7
2312 127561.450        -1.0408         0.2713        -0.0248   1  16   0.0024   0.0026   0.0037  -0.0008   0.0012   0.0009  -0.00    5.7
2312 127561.500        -1.0413         0.2721        -0.0243   1  16   0.0024   0.0026   0.0037  -0.0008   0.0012   0.0009  -0.00    5.7
2312 127561.550        -1.0403         0.2736        -0.0229   1  16   0.0024   0.0026   0.0037  -0.0008   0.0012   0.0009  -0.00    5.8
2312 127561.600        -1.0396         0.2755        -0.0215   1  16   0.0024   0.0026   0.0037  -0.0008   0.0012   0.0009  -0.00    5.8
2312 127561.650        -1.0385         0.2768        -0.0208   1  16   0.0024   0.0026   0.0037  -0.0008   0.0012   0.0009  -0.00    5.8
2312 127561.700        -1.0382         0.2789        -0.0206   1  16   0.0024   0.0026   0.0037  -0.0008   0.0012   0.0009  -0.00    5.8
2312 127561.750        -1.0372         0.2810        -0.0214   1  16   0.0024   0.0026   0.0037  -0.0008   0.0012   0.0009  -0.00    5.8
2312 127561.800        -1.0368         0.2829        -0.0250   1  16   0.0024   0.0026   0.0037  -0.0008   0.0012   0.0009  -0.00    5.8
2312 127561.850        -1.0364         0.2857        -0.0290   1  16   0.0024   0.0026   0.0037  -0.0008   0.0012   0.0009  -0.00    5.9
2312 127561.900        -1.0357         0.2895        -0.0321   1  16   0.0024   0.0026   0.0037  -0.0008   0.0012   0.0009  -0.00    5.9
2312 127561.950        -1.0351         0.2940        -0.0348   1  16   0.0024   0.0026   0.0037  -0.0008   0.0012   0.0009  -0.00    5.9
2312 127562.000        -1.0349         0.2976        -0.0362   1  16   0.0024   0.0026   0.0037  -0.0008   0.0012   0.0009  -0.00    5.9
2312 127562.050        -1.0358         0.2969        -0.0370   1  16   0.0024   0.0026   0.0037  -0.0008   0.0012   0.0009  -0.00    6.0
2312 127562.100        -1.0371         0.2925        -0.0408   1  16   0.0024   0.0026   0.0037  -0.0008   0.0012   0.0009  -0.00    6.0
2312 127562.150        -1.0383         0.2859        -0.0458   1  16   0.0024   0.0026   0.0037  -0.0008   0.0012   0.0009  -0.00    6.0
2312 127562.200        -1.0391         0.2772        -0.0518   1  16   0.0024   0.0026   0.0037  -0.0008   0.0012   0.0009  -0.00    6.1
2312 127562.250        -1.0405         0.2676        -0.0562   1  16   0.0024   0.0026   0.0037  -0.0008   0.0012   0.0009  -0.00    6.1
2312 127562.300        -1.0414         0.2587        -0.0627   1  16   0.0024   0.0026   0.0037  -0.0008   0.0012   0.0009  -0.00    6.2
2312 127562.350        -1.0422         0.2520        -0.0690   1  16   0.0024   0.0026   0.0037  -0.0008   0.0012   0.0009  -0.00    6.2
2312 127562.400        -1.0430         0.2477        -0.0725   1  16   0.0024   0.0026   0.0037  -0.0008   0.0012   0.0009  -0.00    6.3
2312 127562.450        -1.0424         0.2445        -0.0735   1  16   0.0024   0.0026   0.0037  -0.0008   0.0012   0.0010  -0.00    6.3
2312 127562.500        -1.0406         0.2424        -0.0747   1  16   0.0024   0.0026   0.0037  -0.0008   0.0012   0.0009  -0.00    6.4
2312 127562.550        -1.0388         0.2425        -0.0772   1  16   0.0024   0.0026   0.0037  -0.0007   0.0012   0.0009  -0.00    6.4
2312 127562.600        -1.0397         0.2434        -0.0789   1  16   0.0025   0.0026   0.0037  -0.0007   0.0012   0.0008  -0.00    6.5
2312 127562.650        -1.0407         0.2428        -0.0813   1  16   0.0025   0.0026   0.0037  -0.0007   0.0012   0.0008  -0.00    6.5
2312 127562.700        -1.0406         0.2424        -0.0816   1  16   0.0025   0.0026   0.0037  -0.0007   0.0012   0.0007  -0.00    6.6
2312 127562.750        -1.0407         0.2435        -0.0799   1  16   0.0025   0.0026   0.0037  -0.0007   0.0012   0.0007  -0.00    6.6
2312 127562.800        -1.0424         0.2457        -0.0765   1  16   0.0025   0.0026   0.0037  -0.0007   0.0012   0.0007  -0.00    6.7
2312 127562.850        -1.0442         0.2489        -0.0731   1  16   0.0025   0.0026   0.0037  -0.0007   0.0012   0.0007  -0.00    6.7
2312 127562.900        -1.0440         0.2521        -0.0688   1  16   0.0025   0.0026   0.0037  -0.0007   0.0012   0.0007  -0.00    6.7
2312 127562.950        -1.0424         0.2558        -0.0634   1  16   0.0024   0.0026   0.0037  -0.0007   0.0012   0.0008  -0.00    6.8
2312 127563.000        -1.0397         0.2592        -0.0562   1  16   0.0024   0.0026   0.0037  -0.0008   0.0012   0.0008  -0.00    6.8
2312 127563.050        -1.0361         0.2629        -0.0486   1  16   0.0024   0.0026   0.0037  -0.0008   0.0012   0.0008  -0.00    6.9
2312 127563.100        -1.0336         0.2664        -0.0419   1  16   0.0024   0.0026   0.0037  -0.0008   0.0012   0.0008  -0.00    6.9
2312 127563.150        -1.0322         0.2711        -0.0382   1  16   0.0024   0.0026   0.0037  -0.0008   0.0012   0.0008  -0.00    7.0
2312 127563.200        -1.0305         0.2761        -0.0366   1  16   0.0024   0.0026   0.0037  -0.0008   0.0012   0.0008  -0.00    7.0
2312 127563.250        -1.0288         0.2808        -0.0324   1  16   0.0024   0.0026   0.0037  -0.0008   0.0012   0.0009  -0.00    7.1
2312 127563.300        -1.0265         0.2855        -0.0289   1  16   0.0024   0.0026   0.0037  -0.0008   0.0012   0.0009  -0.00    7.2
2312 127563.350        -1.0235         0.2895        -0.0279   1  16   0.0024   0.0026   0.0037  -0.0008   0.0012   0.0009  -0.00    7.2
2312 127563.400        -1.0202         0.2934        -0.0279   1  16   0.0024   0.0026   0.0037  -0.0008   0.0012   0.0009  -0.00    7.3
2312 127563.450        -1.0180         0.2949        -0.0283   1  16   0.0024   0.0026   0.0037  -0.0008   0.0012   0.0009  -0.00    7.3
2312 127563.500        -1.0166         0.2941        -0.0260   1  16   0.0024   0.0026   0.0037  -0.0008   0.0012   0.0009  -0.00    7.4
2312 127563.550        -1.0161         0.2911        -0.0234   1  16   0.0024   0.0026   0.0037  -0.0008   0.0012   0.0009  -0.00    7.5
2312 127563.600        -1.0166         0.2876        -0.0203   1  16   0.0024   0.0026   0.0037  -0.0008   0.0012   0.0009  -0.00    7.6
2312 127563.650        -1.0178         0.2835        -0.0166   1  16   0.0024   0.0026   0.0037  -0.0008   0.0012   0.0009  -0.00    7.6
2312 127563.700        -1.0192         0.2801        -0.0127   1  16   0.0024   0.0026   0.0037  -0.0008   0.0012   0.0009  -0.00    7.7
2312 127563.750        -1.0209         0.2755        -0.0096   1  16   0.0024   0.0026   0.0037  -0.0008   0.0012   0.0009  -0.00    7.8
2312 127563.800        -1.0219         0.2711        -0.0074   1  16   0.0024   0.0026   0.0037  -0.0008   0.0012   0.0009  -0.00    7.9
2312 127563.850        -1.0231         0.2658        -0.0060   1  16   0.0024   0.0026   0.0037  -0.0008   0.0012   0.0009  -0.00    8.0
2312 127563.900        -1.0235         0.2615        -0.0032   1  16   0.0024   0.0026   0.0037  -0.0008   0.0012   0.0009  -0.00    8.1
2312 127563.950        -1.0241         0.2581         0.0012   1  16   0.0024   0.0026   0.0037  -0.0008   0.0012   0.0009  -0.00    8.1
2312 127564.000        -1.0243         0.2544         0.0057   1  16   0.0024   0.0026   0.0037  -0.0008   0.0012   0.0009  -0.00    8.2
2312 127564.050        -1.0248         0.2510         0.0086   1  16   0.0024   0.0026   0.0037  -0.0008   0.0012   0.0009  -0.00    8.3
2312 127564.100        -1.0259         0.2478         0.0095   1  16   0.0024   0.0026   0.0037  -0.0008   0.0012   0.0009  -0.00    8.4
2312 127564.150        -1.0267         0.2463         0.0123   1  16   0.0024   0.0026   0.0037  -0.0008   0.0012   0.0009  -0.00    8.5
