% program   : rnx2rtkp ver.demo5 b34i
% inp file  : /workspaces/emillma-sensorrig/datasets/mai13/2024-05-13T09-42-02_navdata.26.obs
% inp file  : /workspaces/emillma-sensorrig/datasets/mai13/2024-05-13T09-42-02_navdata.27.obs
% inp file  : /workspaces/emillma-sensorrig/src/graphnss/data/cpos/rnx3/1hour/1sec/2024/134/TRDS/TRDS00NOR_S_20241340900_01H_01S_MO.rnx.gz
% inp file  : /workspaces/emillma-sensorrig/src/graphnss/data/cpos/rnx3/1hour/1sec/2024/134/TRDS/TRDS00NOR_S_20241340900_01H_GN.rnx.gz
% inp file  : /workspaces/emillma-sensorrig/src/graphnss/data/cpos/rnx3/1hour/1sec/2024/134/TRDS/TRDS00NOR_S_20241340900_01H_EN.rnx.gz
% inp file  : /workspaces/emillma-sensorrig/src/graphnss/data/cpos/rnx3/1hour/1sec/2024/134/TRDS/TRDS00NOR_S_20241340900_01H_RN.rnx.gz
% inp file  : /workspaces/emillma-sensorrig/src/graphnss/data/cpos/rnx3/1hour/1sec/2024/134/TRDS/TRDS00NOR_S_20241340900_01H_CN.rnx.gz
% obs start : 2024/05/13 09:42:20.7 GPST (week2314 121340.7s)
% obs end   : 2024/05/13 09:49:12.7 GPST (week2314 121752.7s)
%
% (e/n/u-baseline=WGS84,Q=1:fix,2:float,3:sbas,4:dgps,5:single,6:ppp,ns=# of satellites)
%  GPST          e-baseline(m)  n-baseline(m)  u-baseline(m)   Q  ns   sde(m)   sdn(m)   sdu(m)  sden(m)  sdnu(m)  sdue(m) age(s)  ratio
2314 121340.700        -0.9290        -0.5183        -0.3763   2  14   1.1325   1.6842   3.2405  -0.8687   1.7571  -0.7242  -0.00    0.0
2314 121340.750        -0.9491        -0.5022        -0.4990   2  14   0.8403   1.2663   2.4419  -0.6369   1.3255  -0.5047  -0.00    0.0
2314 121340.800        -0.9572        -0.4976        -0.5418   2  14   0.6980   1.0573   2.0408  -0.5265   1.1083  -0.4079  -0.00    0.0
2314 121340.850        -0.9626        -0.4910        -0.5569   2  14   0.6098   0.9263   1.7889  -0.4587   0.9718  -0.3509  -0.00    0.0
2314 121340.900        -0.9641        -0.4874        -0.5760   2  14   0.5484   0.8344   1.6119  -0.4118   0.8758  -0.3124  -0.00    0.0
2314 121340.950        -0.9617        -0.4890        -0.5925   2  14   0.5024   0.7653   1.4788  -0.3769   0.8036  -0.2842  -0.00    0.0
2314 121341.000        -0.9633        -0.4882        -0.6033   2  14   0.4664   0.7110   1.3740  -0.3495   0.7467  -0.2625  -0.00    0.0
2314 121341.050        -0.9664        -0.4881        -0.6121   2  14   0.4371   0.6668   1.2888  -0.3274   0.7004  -0.2450  -0.00    0.0
2314 121341.100        -0.9669        -0.4896        -0.6189   2  14   0.4128   0.6299   1.2176  -0.3089   0.6617  -0.2306  -0.00    0.0
2314 121341.150        -0.9644        -0.4953        -0.6389   2  14   0.3921   0.5985   1.1570  -0.2933   0.6288  -0.2185  -0.00    0.0
2314 121341.200        -0.9622        -0.5000        -0.6568   2  14   0.3742   0.5714   1.1047  -0.2798   0.6004  -0.2081  -0.00    0.0
2314 121341.250        -0.9617        -0.4994        -0.6609   2  14   0.3586   0.5477   1.0588  -0.2681   0.5754  -0.1990  -0.00    0.0
2314 121341.300        -0.9596        -0.5000        -0.6626   2  14   0.3447   0.5267   1.0182  -0.2577   0.5534  -0.1910  -0.00    0.0
2314 121341.350        -0.9565        -0.5054        -0.6694   2  14   0.3324   0.5079   0.9820  -0.2484   0.5337  -0.1839  -0.00    0.0
2314 121341.400        -0.9561        -0.5078        -0.6708   2  14   0.3213   0.4910   0.9493  -0.2400   0.5159  -0.1775  -0.00    0.0
2314 121341.450        -0.9557        -0.5101        -0.6720   2  14   0.3112   0.4757   0.9197  -0.2325   0.4998  -0.1718  -0.00    0.0
2314 121341.500        -0.9542        -0.5125        -0.6772   2  14   0.3021   0.4617   0.8927  -0.2256   0.4851  -0.1665  -0.00    0.0
2314 121341.550        -0.9542        -0.5150        -0.6872   2  14   0.2937   0.4489   0.8679  -0.2192   0.4716  -0.1617  -0.00    0.0
2314 121341.600        -0.9545        -0.5174        -0.6939   2  14   0.2859   0.4370   0.8451  -0.2134   0.4592  -0.1573  -0.00    0.0
2314 121341.650        -0.9536        -0.5199        -0.6966   2  14   0.2788   0.4261   0.8239  -0.2080   0.4477  -0.1532  -0.00    0.0
2314 121341.700        -0.9524        -0.5208        -0.6985   2  14   0.2721   0.4159   0.8043  -0.2031   0.4370  -0.1495  -0.00    0.0
2314 121341.750        -0.9528        -0.5209        -0.7036   2  14   0.2659   0.4065   0.7860  -0.1984   0.4270  -0.1459  -0.00    0.0
2314 121341.800        -0.9521        -0.5190        -0.7002   2  14   0.2601   0.3976   0.7689  -0.1940   0.4177  -0.1426  -0.00    0.0
2314 121341.850        -0.9527        -0.5196        -0.7025   2  14   0.2547   0.3893   0.7528  -0.1900   0.4089  -0.1396  -0.00    0.0
2314 121341.900        -0.9538        -0.5175        -0.7024   2  14   0.2496   0.3815   0.7377  -0.1861   0.4007  -0.1367  -0.00    0.0
2314 121341.950        -0.9826         0.4256         0.0196   1  14   0.0026   0.0037   0.0068  -0.0018   0.0037  -0.0012  -0.00    4.1
2314 121342.000        -0.9821         0.4255         0.0196   1  14   0.0026   0.0037   0.0067  -0.0018   0.0036  -0.0012  -0.00    4.0
2314 121342.050        -0.9817         0.4256         0.0212   1  14   0.0026   0.0037   0.0066  -0.0018   0.0036  -0.0012  -0.00    4.0
2314 121342.100        -0.9814         0.4258         0.0234   1  14   0.0026   0.0037   0.0065  -0.0018   0.0035  -0.0012  -0.00    3.9
2314 121342.150        -0.9811         0.4252         0.0256   1  14   0.0026   0.0037   0.0064  -0.0018   0.0035  -0.0012  -0.00    3.9
2314 121342.200        -0.9814         0.4246         0.0251   1  14   0.0026   0.0037   0.0063  -0.0018   0.0034  -0.0012  -0.00    3.9
2314 121342.250        -0.9816         0.4239         0.0265   1  14   0.0026   0.0037   0.0062  -0.0017   0.0034  -0.0011  -0.00    3.8
2314 121342.300        -0.9825         0.4246         0.0272   1  14   0.0026   0.0037   0.0061  -0.0017   0.0033  -0.0011  -0.00    3.8
2314 121342.350        -0.9829         0.4257         0.0281   1  14   0.0026   0.0036   0.0061  -0.0017   0.0033  -0.0011  -0.00    3.8
2314 121342.400        -0.9826         0.4245         0.0266   1  14   0.0026   0.0036   0.0060  -0.0017   0.0033  -0.0011  -0.00    3.7
2314 121342.450        -0.9825         0.4241         0.0255   1  14   0.0026   0.0036   0.0059  -0.0017   0.0032  -0.0011  -0.00    3.7
2314 121342.500        -0.9825         0.4236         0.0243   1  14   0.0026   0.0036   0.0058  -0.0017   0.0032  -0.0011  -0.00    3.7
2314 121342.550        -0.9824         0.4241         0.0235   1  14   0.0026   0.0036   0.0058  -0.0017   0.0031  -0.0011  -0.00    3.7
2314 121342.600        -0.9817         0.4247         0.0247   1  14   0.0026   0.0036   0.0057  -0.0017   0.0031  -0.0010  -0.00    3.6
2314 121342.650        -0.9819         0.4250         0.0263   1  14   0.0026   0.0036   0.0056  -0.0017   0.0031  -0.0010  -0.00    3.6
2314 121342.700        -0.9815         0.4246         0.0260   1  14   0.0026   0.0035   0.0056  -0.0017   0.0030  -0.0010  -0.00    3.6
2314 121342.750        -0.9818         0.4249         0.0238   1  14   0.0026   0.0035   0.0055  -0.0017   0.0030  -0.0010  -0.00    3.6
2314 121342.800        -0.9812         0.4255         0.0235   1  14   0.0026   0.0035   0.0055  -0.0017   0.0030  -0.0010  -0.00    3.6
2314 121342.850        -0.9818         0.4267         0.0229   1  14   0.0026   0.0035   0.0054  -0.0017   0.0029  -0.0010  -0.00    3.5
2314 121342.900        -0.9826         0.4262         0.0205   1  14   0.0026   0.0035   0.0053  -0.0017   0.0029  -0.0010  -0.00    3.5
2314 121342.950        -0.9823         0.4247         0.0166   1  14   0.0026   0.0035   0.0053  -0.0017   0.0029  -0.0010  -0.00    3.6
2314 121343.000        -0.9817         0.4244         0.0151   1  14   0.0026   0.0035   0.0053  -0.0017   0.0029  -0.0010  -0.00    3.7
2314 121343.050        -0.9810         0.4235         0.0134   1  14   0.0026   0.0035   0.0052  -0.0017   0.0028  -0.0009  -0.00    3.7
2314 121343.100        -0.9801         0.4221         0.0122   1  14   0.0026   0.0035   0.0052  -0.0017   0.0028  -0.0009  -0.00    3.8
2314 121343.150        -0.9798         0.4217         0.0109   1  14   0.0026   0.0035   0.0051  -0.0017   0.0028  -0.0009  -0.00    3.8
2314 121343.200        -0.9794         0.4211         0.0091   1  14   0.0026   0.0035   0.0051  -0.0017   0.0028  -0.0009  -0.00    3.9
2314 121343.250        -0.9801         0.4207         0.0077   1  14   0.0026   0.0035   0.0051  -0.0017   0.0028  -0.0009  -0.00    3.9
2314 121343.300        -0.9808         0.4213         0.0072   1  14   0.0025   0.0035   0.0050  -0.0017   0.0027  -0.0009  -0.00    3.9
2314 121343.350        -0.9808         0.4203         0.0041   1  14   0.0025   0.0035   0.0050  -0.0017   0.0027  -0.0009  -0.00    3.9
2314 121343.400        -0.9801         0.4188         0.0011   1  14   0.0025   0.0035   0.0050  -0.0017   0.0027  -0.0009  -0.00    3.9
2314 121343.450        -0.9805         0.4176        -0.0007   1  14   0.0025   0.0035   0.0049  -0.0017   0.0027  -0.0009  -0.00    3.9
2314 121343.500        -0.9820         0.4184         0.0004   1  14   0.0025   0.0035   0.0049  -0.0017   0.0027  -0.0009  -0.00    3.9
2314 121343.550        -0.9824         0.4201         0.0017   1  14   0.0025   0.0034   0.0049  -0.0017   0.0027  -0.0009  -0.00    3.9
2314 121343.600        -0.9824         0.4200         0.0013   1  14   0.0025   0.0034   0.0049  -0.0017   0.0026  -0.0009  -0.00    3.9
2314 121343.650        -0.9825         0.4194         0.0014   1  14   0.0025   0.0034   0.0048  -0.0017   0.0026  -0.0009  -0.00    3.9
2314 121343.700        -0.9827         0.4185         0.0016   1  14   0.0025   0.0034   0.0048  -0.0017   0.0026  -0.0009  -0.00    3.9
2314 121343.750        -0.9832         0.4187         0.0017   1  14   0.0025   0.0034   0.0048  -0.0017   0.0026  -0.0009  -0.00    3.9
2314 121343.800        -0.9830         0.4199         0.0031   1  14   0.0025   0.0034   0.0048  -0.0017   0.0026  -0.0009  -0.00    3.9
2314 121343.850        -0.9822         0.4195         0.0015   1  14   0.0025   0.0034   0.0048  -0.0017   0.0026  -0.0009  -0.00    3.9
2314 121343.900        -0.9818         0.4189         0.0006   1  14   0.0025   0.0034   0.0048  -0.0017   0.0026  -0.0009  -0.00    3.9
2314 121343.950        -0.9814         0.4189         0.0005   1  14   0.0025   0.0034   0.0047  -0.0017   0.0026  -0.0009  -0.00    3.9
2314 121344.000        -0.9816         0.4183         0.0001   1  14   0.0025   0.0034   0.0047  -0.0017   0.0026  -0.0009  -0.00    3.9
2314 121344.050        -0.9807         0.4174        -0.0004   1  14   0.0025   0.0034   0.0047  -0.0017   0.0026  -0.0009  -0.00    3.9
2314 121344.100        -0.9800         0.4174        -0.0007   1  14   0.0025   0.0034   0.0047  -0.0017   0.0026  -0.0009  -0.00    4.0
2314 121344.150        -0.9796         0.4172        -0.0016   1  14   0.0025   0.0034   0.0047  -0.0017   0.0026  -0.0009  -0.00    4.0
2314 121344.200        -0.9794         0.4175        -0.0011   1  14   0.0025   0.0034   0.0047  -0.0017   0.0026  -0.0009  -0.00    4.0
2314 121344.250        -0.9798         0.4180         0.0007   1  14   0.0025   0.0034   0.0047  -0.0017   0.0026  -0.0009  -0.00    4.0
2314 121344.300        -0.9801         0.4187         0.0027   1  14   0.0025   0.0034   0.0047  -0.0017   0.0026  -0.0009  -0.00    4.0
2314 121344.350        -0.9809         0.4189         0.0038   1  14   0.0025   0.0034   0.0047  -0.0017   0.0026  -0.0009  -0.00    4.0
2314 121344.400        -0.9811         0.4193         0.0046   1  14   0.0025   0.0034   0.0047  -0.0017   0.0026  -0.0009  -0.00    4.0
2314 121344.450        -0.9816         0.4200         0.0050   1  14   0.0025   0.0034   0.0047  -0.0017   0.0026  -0.0009  -0.00    4.0
2314 121344.500        -0.9821         0.4200         0.0066   1  14   0.0025   0.0034   0.0047  -0.0017   0.0026  -0.0009  -0.00    4.0
2314 121344.550        -0.9824         0.4215         0.0093   1  14   0.0025   0.0034   0.0047  -0.0017   0.0025  -0.0009  -0.00    4.0
2314 121344.600        -0.9831         0.4226         0.0124   1  14   0.0025   0.0034   0.0047  -0.0017   0.0025  -0.0009  -0.00    4.0
2314 121344.650        -0.9831         0.4236         0.0146   1  14   0.0025   0.0034   0.0047  -0.0017   0.0025  -0.0009  -0.00    4.0
2314 121344.700        -0.9831         0.4236         0.0169   1  14   0.0025   0.0034   0.0047  -0.0017   0.0025  -0.0009  -0.00    4.0
2314 121344.750        -0.9826         0.4229         0.0185   1  14   0.0025   0.0034   0.0047  -0.0017   0.0025  -0.0009  -0.00    4.0
2314 121344.800        -0.9812         0.4222         0.0190   1  14   0.0025   0.0034   0.0047  -0.0017   0.0025  -0.0009  -0.00    4.0
2314 121344.850        -0.9799         0.4212         0.0192   1  14   0.0025   0.0034   0.0047  -0.0017   0.0025  -0.0009  -0.00    4.0
2314 121344.900        -0.9786         0.4204         0.0198   1  14   0.0025   0.0034   0.0047  -0.0017   0.0025  -0.0009  -0.00    4.0
2314 121344.950        -0.9777         0.4188         0.0202   1  14   0.0025   0.0034   0.0047  -0.0017   0.0025  -0.0009  -0.00    4.0
2314 121345.000        -0.9775         0.4181         0.0197   1  14   0.0025   0.0034   0.0047  -0.0017   0.0025  -0.0009  -0.00    4.0
2314 121345.050        -0.9774         0.4187         0.0194   1  14   0.0025   0.0034   0.0047  -0.0017   0.0025  -0.0009  -0.00    4.0
2314 121345.100        -0.9782         0.4194         0.0195   1  14   0.0025   0.0034   0.0047  -0.0017   0.0025  -0.0009  -0.00    4.0
2314 121345.150        -0.9792         0.4205         0.0184   1  14   0.0025   0.0034   0.0047  -0.0017   0.0025  -0.0009  -0.00    4.0
2314 121345.200        -0.9805         0.4216         0.0178   1  14   0.0025   0.0034   0.0047  -0.0017   0.0025  -0.0009  -0.00    4.0
2314 121345.250        -0.9810         0.4222         0.0176   1  14   0.0025   0.0034   0.0047  -0.0017   0.0025  -0.0009  -0.00    4.0
2314 121345.300        -0.9809         0.4227         0.0180   1  14   0.0025   0.0034   0.0047  -0.0017   0.0025  -0.0009  -0.00    4.0
2314 121345.350        -0.9807         0.4225         0.0187   1  14   0.0025   0.0034   0.0047  -0.0017   0.0025  -0.0009  -0.00    4.0
2314 121345.400        -0.9802         0.4217         0.0188   1  14   0.0025   0.0034   0.0047  -0.0017   0.0025  -0.0009  -0.00    4.0
2314 121345.450        -0.9802         0.4206         0.0190   1  14   0.0025   0.0034   0.0047  -0.0017   0.0025  -0.0009  -0.00    4.0
2314 121345.500        -0.9805         0.4203         0.0205   1  14   0.0025   0.0034   0.0047  -0.0017   0.0025  -0.0009  -0.00    4.0
2314 121345.550        -0.9799         0.4198         0.0207   1  14   0.0025   0.0034   0.0047  -0.0017   0.0025  -0.0009  -0.00    4.0
2314 121345.600        -0.9806         0.4202         0.0232   1  14   0.0025   0.0034   0.0047  -0.0017   0.0025  -0.0009  -0.00    4.0
2314 121345.650        -0.9820         0.4208         0.0222   1  14   0.0025   0.0034   0.0047  -0.0017   0.0025  -0.0009  -0.00    4.1
2314 121345.700        -0.9821         0.4214         0.0217   1  14   0.0025   0.0034   0.0047  -0.0017   0.0025  -0.0009  -0.00    4.1
2314 121345.750        -0.9819         0.4214         0.0224   1  14   0.0025   0.0034   0.0047  -0.0017   0.0025  -0.0009  -0.00    4.1
2314 121345.800        -0.9824         0.4217         0.0246   1  14   0.0025   0.0034   0.0047  -0.0017   0.0025  -0.0009  -0.00    4.1
2314 121345.850        -0.9835         0.4215         0.0262   1  14   0.0025   0.0034   0.0047  -0.0017   0.0025  -0.0009  -0.00    4.1
2314 121345.900        -0.9835         0.4208         0.0280   1  14   0.0025   0.0034   0.0047  -0.0017   0.0025  -0.0009  -0.00    4.1
2314 121345.950        -0.9841         0.4209         0.0294   1  14   0.0025   0.0034   0.0047  -0.0017   0.0025  -0.0009  -0.00    4.1
2314 121346.000        -0.9834         0.4211         0.0284   1  14   0.0025   0.0034   0.0047  -0.0017   0.0025  -0.0009  -0.00    4.2
2314 121346.050        -0.9836         0.4214         0.0277   1  14   0.0025   0.0034   0.0047  -0.0017   0.0025  -0.0009  -0.00    4.2
2314 121346.100        -0.9835         0.4206         0.0267   1  14   0.0025   0.0034   0.0047  -0.0017   0.0025  -0.0009  -0.00    4.2
2314 121346.150        -0.9841         0.4213         0.0265   1  14   0.0025   0.0034   0.0047  -0.0017   0.0025  -0.0009  -0.00    4.2
2314 121346.200        -0.9840         0.4220         0.0262   1  14   0.0025   0.0034   0.0047  -0.0017   0.0025  -0.0009  -0.00    4.3
2314 121346.250        -0.9840         0.4215         0.0249   1  14   0.0025   0.0034   0.0047  -0.0017   0.0025  -0.0009  -0.00    4.3
2314 121346.300        -0.9843         0.4221         0.0242   1  14   0.0025   0.0034   0.0047  -0.0017   0.0025  -0.0009  -0.00    4.4
2314 121346.350        -0.9844         0.4214         0.0234   1  14   0.0025   0.0034   0.0047  -0.0017   0.0025  -0.0009  -0.00    4.5
2314 121346.400        -0.9840         0.4206         0.0218   1  14   0.0025   0.0034   0.0047  -0.0017   0.0025  -0.0009  -0.00    4.5
2314 121346.450        -0.9834         0.4202         0.0204   1  14   0.0025   0.0034   0.0047  -0.0017   0.0025  -0.0009  -0.00    4.6
2314 121346.500        -0.9828         0.4191         0.0201   1  14   0.0025   0.0034   0.0047  -0.0017   0.0025  -0.0009  -0.00    4.7
2314 121346.550        -0.9826         0.4182         0.0184   1  14   0.0025   0.0034   0.0047  -0.0017   0.0025  -0.0009  -0.00    4.8
2314 121346.600        -0.9836         0.4180         0.0170   1  14   0.0025   0.0034   0.0047  -0.0017   0.0025  -0.0009  -0.00    4.9
2314 121346.650        -0.9839         0.4180         0.0168   1  14   0.0025   0.0034   0.0047  -0.0017   0.0025  -0.0009  -0.00    5.0
2314 121346.700        -0.9837         0.4188         0.0168   1  14   0.0025   0.0034   0.0047  -0.0017   0.0025  -0.0009  -0.00    5.0
2314 121346.750        -0.9831         0.4202         0.0169   1  14   0.0025   0.0034   0.0047  -0.0017   0.0025  -0.0009  -0.00    5.1
2314 121346.800        -0.9815         0.4204         0.0158   1  14   0.0025   0.0034   0.0047  -0.0017   0.0025  -0.0009  -0.00    5.2
2314 121346.850        -0.9790         0.4200         0.0126   1  14   0.0025   0.0034   0.0047  -0.0017   0.0025  -0.0009  -0.00    5.3
2314 121346.900        -0.9792         0.4199         0.0094   1  14   0.0025   0.0034   0.0047  -0.0017   0.0025  -0.0009  -0.00    5.4
2314 121346.950        -0.9792         0.4197         0.0056   1  14   0.0025   0.0034   0.0047  -0.0017   0.0025  -0.0009  -0.00    5.5
2314 121347.000        -0.9802         0.4193         0.0012   1  14   0.0025   0.0034   0.0047  -0.0017   0.0025  -0.0009  -0.00    5.6
2314 121347.050        -0.9805         0.4191        -0.0023   1  14   0.0025   0.0034   0.0047  -0.0017   0.0025  -0.0009  -0.00    5.7
2314 121347.100        -0.9810         0.4185        -0.0033   1  14   0.0025   0.0034   0.0047  -0.0017   0.0025  -0.0009  -0.00    5.7
2314 121347.150        -0.9811         0.4176        -0.0050   1  14   0.0025   0.0034   0.0047  -0.0017   0.0025  -0.0009  -0.00    5.8
2314 121347.200        -0.9810         0.4161        -0.0069   1  14   0.0025   0.0034   0.0047  -0.0017   0.0025  -0.0009  -0.00    5.9
2314 121347.250        -0.9816         0.4144        -0.0092   1  14   0.0025   0.0034   0.0047  -0.0017   0.0025  -0.0009  -0.00    6.0
2314 121347.300        -0.9819         0.4136        -0.0105   1  14   0.0025   0.0034   0.0047  -0.0017   0.0025  -0.0009  -0.00    6.1
2314 121347.350        -0.9818         0.4132        -0.0132   1  14   0.0025   0.0034   0.0047  -0.0017   0.0025  -0.0009  -0.00    6.1
2314 121347.400        -0.9812         0.4121        -0.0156   1  14   0.0025   0.0034   0.0047  -0.0017   0.0025  -0.0009  -0.00    6.2
2314 121347.450        -0.9812         0.4112        -0.0168   1  14   0.0025   0.0034   0.0047  -0.0017   0.0025  -0.0009  -0.00    6.3
2314 121347.500        -0.9816         0.4093        -0.0196   1  14   0.0025   0.0034   0.0047  -0.0017   0.0025  -0.0009  -0.00    6.3
2314 121347.550        -0.9817         0.4075        -0.0218   1  14   0.0025   0.0034   0.0047  -0.0017   0.0025  -0.0009  -0.00    6.4
2314 121347.600        -0.9816         0.4071        -0.0229   1  14   0.0025   0.0034   0.0047  -0.0017   0.0025  -0.0009  -0.00    6.5
2314 121347.650        -0.9816         0.4070        -0.0232   1  14   0.0025   0.0034   0.0047  -0.0017   0.0025  -0.0009  -0.00    6.6
2314 121347.700        -0.9823         0.4089        -0.0215   1  14   0.0025   0.0034   0.0047  -0.0017   0.0025  -0.0009  -0.00    6.6
2314 121347.750        -0.9825         0.4101        -0.0191   1  14   0.0025   0.0034   0.0047  -0.0017   0.0025  -0.0009  -0.00    6.7
2314 121347.800        -0.9829         0.4120        -0.0142   1  14   0.0025   0.0034   0.0047  -0.0017   0.0025  -0.0009  -0.00    6.7
2314 121347.850        -0.9828         0.4140        -0.0088   1  14   0.0025   0.0034   0.0047  -0.0017   0.0025  -0.0009  -0.00    6.8
2314 121347.900        -0.9829         0.4149        -0.0049   1  13   0.0026   0.0034   0.0047  -0.0017   0.0025  -0.0008  -0.00    5.3
2314 121347.950        -0.9826         0.4163        -0.0004   1  13   0.0026   0.0034   0.0047  -0.0017   0.0025  -0.0008  -0.00    5.4
2314 121348.000        -0.9818         0.4168         0.0034   1  13   0.0026   0.0035   0.0047  -0.0017   0.0025  -0.0008  -0.00    5.4
2314 121348.050        -0.9818         0.4172         0.0058   1  13   0.0026   0.0035   0.0047  -0.0017   0.0025  -0.0008  -0.00    5.5
2314 121348.100        -0.9821         0.4176         0.0076   1  13   0.0026   0.0035   0.0047  -0.0017   0.0025  -0.0008  -0.00    5.5
2314 121348.150        -0.9825         0.4183         0.0107   1  13   0.0026   0.0035   0.0047  -0.0017   0.0025  -0.0008  -0.00    5.6
2314 121348.200        -0.9825         0.4180         0.0126   1  14   0.0026   0.0035   0.0047  -0.0017   0.0025  -0.0008  -0.00    5.7
2314 121348.250        -0.9821         0.4182         0.0157   1  14   0.0026   0.0035   0.0047  -0.0017   0.0025  -0.0008  -0.00    5.7
2314 121348.300        -0.9814         0.4188         0.0190   1  14   0.0026   0.0035   0.0047  -0.0017   0.0025  -0.0008  -0.00    5.8
2314 121348.350        -0.9810         0.4193         0.0201   1  14   0.0026   0.0035   0.0047  -0.0017   0.0025  -0.0008  -0.00    5.8
2314 121348.400        -0.9805         0.4205         0.0224   1  14   0.0026   0.0035   0.0047  -0.0017   0.0025  -0.0008  -0.00    5.9
2314 121348.450        -0.9808         0.4208         0.0248   1  14   0.0026   0.0035   0.0047  -0.0017   0.0025  -0.0008  -0.00    5.9
2314 121348.500        -0.9809         0.4214         0.0269   1  14   0.0026   0.0035   0.0047  -0.0017   0.0025  -0.0008  -0.00    6.0
2314 121348.550        -0.9814         0.4219         0.0280   1  14   0.0026   0.0035   0.0047  -0.0017   0.0025  -0.0008  -0.00    6.0
2314 121348.600        -0.9819         0.4226         0.0290   1  14   0.0026   0.0035   0.0047  -0.0017   0.0025  -0.0008  -0.00    6.1
2314 121348.650        -0.9820         0.4225         0.0289   1  14   0.0026   0.0035   0.0047  -0.0017   0.0025  -0.0008  -0.00    6.1
2314 121348.700        -0.9817         0.4224         0.0268   1  14   0.0026   0.0035   0.0047  -0.0017   0.0025  -0.0008  -0.00    6.2
2314 121348.750        -0.9814         0.4231         0.0232   1  14   0.0026   0.0035   0.0047  -0.0017   0.0025  -0.0008  -0.00    6.2
2314 121348.800        -0.9816         0.4224         0.0205   1  14   0.0026   0.0035   0.0047  -0.0017   0.0025  -0.0008  -0.00    6.2
2314 121348.850        -0.9820         0.4215         0.0183   1  14   0.0026   0.0035   0.0047  -0.0017   0.0025  -0.0008  -0.00    6.3
2314 121348.900        -0.9829         0.4213         0.0171   1  14   0.0026   0.0035   0.0047  -0.0017   0.0025  -0.0008  -0.00    6.3
2314 121348.950        -0.9836         0.4215         0.0164   1  14   0.0026   0.0035   0.0047  -0.0017   0.0025  -0.0008  -0.00    6.4
2314 121349.000        -0.9830         0.4214         0.0170   1  14   0.0026   0.0035   0.0047  -0.0017   0.0025  -0.0008  -0.00    6.4
2314 121349.050        -0.9823         0.4208         0.0174   1  14   0.0026   0.0035   0.0047  -0.0017   0.0025  -0.0008  -0.00    6.5
2314 121349.100        -0.9830         0.4210         0.0182   1  14   0.0026   0.0035   0.0047  -0.0017   0.0025  -0.0008  -0.00    6.6
2314 121349.150        -0.9826         0.4207         0.0184   1  14   0.0026   0.0035   0.0047  -0.0017   0.0025  -0.0008  -0.00    6.6
2314 121349.200        -0.9821         0.4199         0.0188   1  14   0.0026   0.0035   0.0047  -0.0017   0.0025  -0.0008  -0.00    6.7
2314 121349.250        -0.9820         0.4188         0.0185   1  14   0.0026   0.0035   0.0047  -0.0017   0.0025  -0.0008  -0.00    6.7
2314 121349.300        -0.9816         0.4190         0.0176   1  14   0.0026   0.0035   0.0047  -0.0017   0.0025  -0.0008  -0.00    6.8
2314 121349.350        -0.9816         0.4192         0.0176   1  14   0.0026   0.0035   0.0047  -0.0017   0.0025  -0.0008  -0.00    6.8
2314 121349.400        -0.9812         0.4191         0.0190   1  14   0.0026   0.0035   0.0047  -0.0017   0.0025  -0.0008  -0.00    6.9
2314 121349.450        -0.9813         0.4196         0.0213   1  14   0.0026   0.0035   0.0047  -0.0017   0.0025  -0.0008  -0.00    6.9
2314 121349.500        -0.9820         0.4191         0.0214   1  14   0.0026   0.0035   0.0047  -0.0017   0.0025  -0.0008  -0.00    7.0
2314 121349.550        -0.9824         0.4187         0.0203   1  14   0.0026   0.0035   0.0047  -0.0017   0.0025  -0.0008  -0.00    7.0
2314 121349.600        -0.9831         0.4181         0.0187   1  14   0.0026   0.0035   0.0047  -0.0017   0.0025  -0.0008  -0.00    7.1
2314 121349.650        -0.9835         0.4192         0.0202   1  14   0.0026   0.0035   0.0047  -0.0017   0.0025  -0.0008  -0.00    7.1
2314 121349.700        -0.9832         0.4203         0.0201   1  14   0.0026   0.0035   0.0047  -0.0017   0.0025  -0.0008  -0.00    7.2
2314 121349.750        -0.9837         0.4213         0.0185   1  14   0.0026   0.0035   0.0047  -0.0017   0.0025  -0.0008  -0.00    7.2
2314 121349.800        -0.9844         0.4217         0.0175   1  14   0.0026   0.0035   0.0047  -0.0017   0.0025  -0.0008  -0.00    7.3
2314 121349.850        -0.9841         0.4219         0.0164   1  14   0.0026   0.0035   0.0047  -0.0017   0.0025  -0.0008  -0.00    7.3
2314 121349.900        -0.9835         0.4217         0.0150   1  14   0.0026   0.0035   0.0047  -0.0017   0.0025  -0.0008  -0.00    7.4
2314 121349.950        -0.9834         0.4219         0.0138   1  14   0.0026   0.0035   0.0047  -0.0017   0.0025  -0.0008  -0.00    7.4
2314 121350.000        -0.9839         0.4215         0.0110   1  14   0.0026   0.0035   0.0047  -0.0017   0.0025  -0.0008  -0.00    7.5
2314 121350.050        -0.9841         0.4216         0.0099   1  14   0.0026   0.0035   0.0047  -0.0017   0.0025  -0.0008  -0.00    7.5
2314 121350.100        -0.9835         0.4200         0.0092   1  14   0.0026   0.0035   0.0047  -0.0017   0.0025  -0.0008  -0.00    7.6
2314 121350.150        -0.9821         0.4184         0.0101   1  14   0.0026   0.0035   0.0047  -0.0017   0.0025  -0.0008  -0.00    7.7
2314 121350.200        -0.9809         0.4176         0.0114   1  14   0.0026   0.0035   0.0047  -0.0017   0.0025  -0.0008  -0.00    7.7
2314 121350.250        -0.9809         0.4169         0.0115   1  14   0.0026   0.0035   0.0047  -0.0017   0.0025  -0.0008  -0.00    7.8
2314 121350.300        -0.9801         0.4162         0.0132   1  14   0.0026   0.0035   0.0047  -0.0017   0.0025  -0.0008  -0.00    7.9
2314 121350.350        -0.9800         0.4157         0.0147   1  14   0.0026   0.0035   0.0047  -0.0017   0.0025  -0.0008  -0.00    7.9
2314 121350.400        -0.9800         0.4158         0.0163   1  14   0.0026   0.0034   0.0047  -0.0017   0.0025  -0.0008  -0.00    8.0
2314 121350.450        -0.9807         0.4170         0.0182   1  14   0.0026   0.0034   0.0047  -0.0017   0.0025  -0.0008  -0.00    8.0
2314 121350.500        -0.9808         0.4181         0.0198   1  14   0.0026   0.0034   0.0047  -0.0017   0.0025  -0.0008  -0.00    8.1
2314 121350.550        -0.9816         0.4188         0.0206   1  14   0.0026   0.0034   0.0047  -0.0017   0.0025  -0.0008  -0.00    8.1
2314 121350.600        -0.9822         0.4185         0.0198   1  14   0.0026   0.0034   0.0047  -0.0017   0.0025  -0.0008  -0.00    8.2
2314 121350.650        -0.9817         0.4175         0.0200   1  14   0.0026   0.0034   0.0047  -0.0017   0.0025  -0.0008  -0.00    8.2
2314 121350.700        -0.9822         0.4174         0.0195   1  14   0.0026   0.0034   0.0047  -0.0017   0.0025  -0.0008  -0.00    8.3
2314 121350.750        -0.9825         0.4173         0.0176   1  14   0.0026   0.0034   0.0047  -0.0017   0.0025  -0.0008  -0.00    8.3
2314 121350.800        -0.9818         0.4174         0.0160   1  14   0.0026   0.0034   0.0047  -0.0017   0.0025  -0.0008  -0.00    8.4
2314 121350.850        -0.9809         0.4179         0.0154   1  14   0.0026   0.0034   0.0047  -0.0017   0.0025  -0.0008  -0.00    8.4
2314 121350.900        -0.9813         0.4174         0.0136   1  14   0.0026   0.0034   0.0047  -0.0017   0.0025  -0.0008  -0.00    8.5
2314 121350.950        -0.9815         0.4164         0.0107   1  14   0.0026   0.0034   0.0047  -0.0017   0.0025  -0.0008  -0.00    8.5
2314 121351.000        -0.9810         0.4167         0.0084   1  14   0.0026   0.0034   0.0047  -0.0017   0.0025  -0.0008  -0.00    8.6
2314 121351.050        -0.9809         0.4168         0.0070   1  14   0.0026   0.0034   0.0047  -0.0017   0.0025  -0.0008  -0.00    8.6
2314 121351.100        -0.9810         0.4169         0.0063   1  14   0.0026   0.0034   0.0047  -0.0017   0.0025  -0.0008  -0.00    8.7
2314 121351.150        -0.9819         0.4184         0.0078   1  14   0.0026   0.0034   0.0047  -0.0017   0.0025  -0.0008  -0.00    8.7
2314 121351.200        -0.9825         0.4188         0.0086   1  14   0.0025   0.0034   0.0047  -0.0017   0.0025  -0.0008  -0.00    8.8
2314 121351.250        -0.9830         0.4186         0.0085   1  14   0.0025   0.0034   0.0047  -0.0017   0.0025  -0.0008  -0.00    8.8
2314 121351.300        -0.9828         0.4190         0.0098   1  14   0.0025   0.0034   0.0047  -0.0017   0.0025  -0.0008  -0.00    8.9
2314 121351.350        -0.9833         0.4191         0.0127   1  14   0.0025   0.0034   0.0047  -0.0017   0.0025  -0.0008  -0.00    8.9
2314 121351.400        -0.9831         0.4187         0.0151   1  14   0.0025   0.0034   0.0047  -0.0017   0.0025  -0.0008  -0.00    9.0
2314 121351.450        -0.9825         0.4181         0.0164   1  14   0.0025   0.0034   0.0047  -0.0017   0.0025  -0.0008  -0.00    9.1
2314 121351.500        -0.9829         0.4187         0.0180   1  14   0.0025   0.0034   0.0047  -0.0017   0.0025  -0.0008  -0.00    9.1
2314 121351.550        -0.9820         0.4198         0.0204   1  14   0.0025   0.0034   0.0047  -0.0017   0.0025  -0.0008  -0.00    9.2
2314 121351.600        -0.9820         0.4207         0.0213   1  14   0.0025   0.0034   0.0047  -0.0017   0.0025  -0.0009  -0.00    3.3
2314 121351.650        -0.9829         0.4209         0.0214   1  14   0.0025   0.0034   0.0047  -0.0017   0.0025  -0.0009  -0.00    3.5
2314 121351.700        -0.9828         0.4210         0.0207   1  14   0.0025   0.0034   0.0047  -0.0017   0.0025  -0.0009  -0.00    3.6
2314 121351.750        -0.9831         0.4218         0.0211   1  14   0.0025   0.0034   0.0047  -0.0017   0.0025  -0.0009  -0.00    3.8
2314 121351.800        -0.9827         0.4218         0.0205   1  14   0.0025   0.0034   0.0047  -0.0017   0.0025  -0.0009  -0.00    3.9
2314 121351.850        -0.9827         0.4216         0.0201   1  14   0.0025   0.0034   0.0047  -0.0017   0.0025  -0.0009  -0.00    4.0
2314 121351.900        -0.9825         0.4214         0.0200   1  14   0.0025   0.0034   0.0047  -0.0017   0.0025  -0.0009  -0.00    4.2
2314 121351.950        -0.9832         0.4213         0.0177   1  14   0.0025   0.0034   0.0047  -0.0017   0.0025  -0.0009  -0.00    4.3
2314 121352.000        -0.9839         0.4204         0.0149   1  14   0.0025   0.0034   0.0047  -0.0017   0.0025  -0.0009  -0.00    4.4
2314 121352.050        -0.9840         0.4196         0.0130   1  14   0.0025   0.0034   0.0047  -0.0017   0.0025  -0.0009  -0.00    4.6
2314 121352.100        -0.9833         0.4179         0.0103   1  14   0.0025   0.0034   0.0047  -0.0017   0.0025  -0.0009  -0.00    4.7
2314 121352.150        -0.9821         0.4160         0.0078   1  14   0.0025   0.0034   0.0047  -0.0017   0.0025  -0.0009  -0.00    4.8
2314 121352.200        -0.9813         0.4149         0.0051   1  14   0.0025   0.0034   0.0047  -0.0017   0.0025  -0.0009  -0.00    5.0
2314 121352.250        -0.9806         0.4132         0.0010   1  14   0.0025   0.0034   0.0047  -0.0017   0.0025  -0.0009  -0.00    5.1
2314 121352.300        -0.9802         0.4122        -0.0026   1  14   0.0025   0.0034   0.0047  -0.0017   0.0025  -0.0009  -0.00    5.2
2314 121352.350        -0.9797         0.4111        -0.0041   1  14   0.0025   0.0034   0.0047  -0.0017   0.0025  -0.0009  -0.00    5.4
2314 121352.400        -0.9801         0.4098        -0.0060   1  14   0.0025   0.0034   0.0047  -0.0017   0.0025  -0.0009  -0.00    5.5
2314 121352.450        -0.9799         0.4096        -0.0066   1  14   0.0025   0.0034   0.0047  -0.0017   0.0025  -0.0009  -0.00    5.6
2314 121352.500        -0.9797         0.4099        -0.0084   1  14   0.0025   0.0034   0.0047  -0.0017   0.0025  -0.0009  -0.00    5.8
2314 121352.550        -0.9798         0.4103        -0.0096   1  14   0.0025   0.0034   0.0047  -0.0017   0.0025  -0.0009  -0.00    5.9
2314 121352.600        -0.9794         0.4115        -0.0078   1  14   0.0025   0.0034   0.0047  -0.0017   0.0025  -0.0009  -0.00    6.0
2314 121352.650        -0.9792         0.4114        -0.0069   1  14   0.0025   0.0034   0.0047  -0.0017   0.0025  -0.0009  -0.00    6.2
2314 121352.700        -0.9794         0.4100        -0.0089   1  14   0.0025   0.0034   0.0047  -0.0017   0.0025  -0.0009  -0.00    6.3
2314 121352.750        -0.9798         0.4091        -0.0112   1  14   0.0025   0.0034   0.0047  -0.0017   0.0025  -0.0009  -0.00    6.4
2314 121352.800        -0.9800         0.4082        -0.0122   1  14   0.0025   0.0034   0.0047  -0.0017   0.0025  -0.0009  -0.00    6.6
2314 121352.850        -0.9803         0.4088        -0.0137   1  14   0.0025   0.0034   0.0047  -0.0017   0.0025  -0.0009  -0.00    6.7
2314 121352.900        -0.9804         0.4093        -0.0157   1  14   0.0025   0.0034   0.0047  -0.0017   0.0025  -0.0009  -0.00    6.9
2314 121352.950        -0.9806         0.4091        -0.0162   1  14   0.0025   0.0034   0.0047  -0.0017   0.0025  -0.0009  -0.00    7.0
2314 121353.000        -0.9815         0.4098        -0.0143   1  14   0.0025   0.0034   0.0047  -0.0017   0.0025  -0.0009  -0.00    7.1
2314 121353.050        -0.9822         0.4107        -0.0124   1  14   0.0025   0.0034   0.0047  -0.0017   0.0025  -0.0009  -0.00    7.3
2314 121353.100        -0.9830         0.4123        -0.0097   1  14   0.0025   0.0034   0.0047  -0.0017   0.0025  -0.0009  -0.00    7.4
2314 121353.150        -0.9826         0.4129        -0.0074   1  14   0.0025   0.0034   0.0047  -0.0017   0.0025  -0.0009  -0.00    7.6
2314 121353.200        -0.9822         0.4139        -0.0038   1  14   0.0025   0.0034   0.0047  -0.0017   0.0025  -0.0009  -0.00    7.7
2314 121353.250        -0.9827         0.4152         0.0019   1  14   0.0025   0.0034   0.0047  -0.0017   0.0025  -0.0009  -0.00    7.8
2314 121353.300        -0.9830         0.4164         0.0074   1  14   0.0025   0.0034   0.0047  -0.0017   0.0025  -0.0009  -0.00    7.9
2314 121353.350        -0.9828         0.4179         0.0109   1  14   0.0025   0.0034   0.0047  -0.0017   0.0025  -0.0009  -0.00    8.1
2314 121353.400        -0.9820         0.4189         0.0146   1  14   0.0025   0.0034   0.0047  -0.0017   0.0025  -0.0009  -0.00    8.2
2314 121353.450        -0.9821         0.4202         0.0177   1  14   0.0025   0.0034   0.0047  -0.0017   0.0025  -0.0009  -0.00    8.4
2314 121353.500        -0.9820         0.4214         0.0222   1  14   0.0025   0.0034   0.0047  -0.0017   0.0025  -0.0009  -0.00    8.5
2314 121353.550        -0.9825         0.4221         0.0270   1  14   0.0025   0.0034   0.0047  -0.0017   0.0025  -0.0009  -0.00    8.7
2314 121353.600        -0.9836         0.4238         0.0320   1  14   0.0025   0.0034   0.0047  -0.0017   0.0025  -0.0009  -0.00    8.8
2314 121353.650        -0.9844         0.4253         0.0353   1  14   0.0025   0.0034   0.0047  -0.0017   0.0025  -0.0009  -0.00    9.0
2314 121353.700        -0.9846         0.4260         0.0367   1  14   0.0025   0.0034   0.0047  -0.0017   0.0025  -0.0009  -0.00    9.1
2314 121353.750        -0.9843         0.4267         0.0378   1  14   0.0025   0.0034   0.0047  -0.0017   0.0025  -0.0009  -0.00    9.2
2314 121353.800        -0.9842         0.4276         0.0393   1  14   0.0025   0.0034   0.0047  -0.0017   0.0025  -0.0009  -0.00    9.4
2314 121353.850        -0.9839         0.4273         0.0399   1  14   0.0025   0.0034   0.0047  -0.0017   0.0025  -0.0009  -0.00    9.5
2314 121353.900        -0.9845         0.4272         0.0387   1  14   0.0025   0.0034   0.0047  -0.0017   0.0025  -0.0009  -0.00    9.7
2314 121353.950        -0.9842         0.4268         0.0379   1  14   0.0025   0.0034   0.0047  -0.0017   0.0025  -0.0009  -0.00    9.8
2314 121354.000        -0.9835         0.4260         0.0357   1  14   0.0025   0.0034   0.0047  -0.0017   0.0025  -0.0009  -0.00    9.9
2314 121354.050        -0.9830         0.4252         0.0325   1  14   0.0025   0.0034   0.0047  -0.0017   0.0025  -0.0009  -0.00   10.1
2314 121354.100        -0.9830         0.4241         0.0299   1  14   0.0025   0.0034   0.0047  -0.0017   0.0025  -0.0009  -0.00   10.2
2314 121354.150        -0.9837         0.4229         0.0263   1  14   0.0025   0.0034   0.0047  -0.0017   0.0025  -0.0009  -0.00   10.3
2314 121354.200        -0.9841         0.4221         0.0245   1  14   0.0025   0.0034   0.0047  -0.0017   0.0025  -0.0009  -0.00   10.5
2314 121354.250        -0.9836         0.4210         0.0235   1  14   0.0025   0.0034   0.0047  -0.0017   0.0025  -0.0009  -0.00   10.6
2314 121354.300        -0.9827         0.4195         0.0213   1  14   0.0025   0.0034   0.0047  -0.0017   0.0025  -0.0009  -0.00   10.8
2314 121354.350        -0.9823         0.4191         0.0191   1  14   0.0025   0.0034   0.0047  -0.0017   0.0025  -0.0009  -0.00   10.9
2314 121354.400        -0.9824         0.4184         0.0172   1  14   0.0025   0.0034   0.0047  -0.0017   0.0025  -0.0009  -0.00   11.1
2314 121354.450        -0.9825         0.4184         0.0153   1  14   0.0025   0.0034   0.0047  -0.0017   0.0025  -0.0009  -0.00   11.2
2314 121354.500        -0.9823         0.4182         0.0145   1  14   0.0025   0.0034   0.0047  -0.0017   0.0025  -0.0009  -0.00   11.3
2314 121354.550        -0.9821         0.4175         0.0133   1  14   0.0025   0.0034   0.0047  -0.0017   0.0025  -0.0009  -0.00   11.5
2314 121354.600        -0.9821         0.4172         0.0140   1  14   0.0025   0.0034   0.0047  -0.0017   0.0025  -0.0009  -0.00   11.6
2314 121354.650        -0.9826         0.4173         0.0148   1  14   0.0025   0.0034   0.0047  -0.0017   0.0025  -0.0009  -0.00   11.8
2314 121354.700        -0.9824         0.4183         0.0164   1  14   0.0025   0.0034   0.0047  -0.0017   0.0025  -0.0009  -0.00   11.9
2314 121354.750        -0.9821         0.4194         0.0177   1  14   0.0025   0.0034   0.0047  -0.0017   0.0025  -0.0009  -0.00   12.1
2314 121354.800        -0.9822         0.4203         0.0177   1  14   0.0025   0.0034   0.0047  -0.0017   0.0025  -0.0009  -0.00   12.2
2314 121354.850        -0.9832         0.4222         0.0183   1  14   0.0025   0.0034   0.0047  -0.0017   0.0025  -0.0009  -0.00   12.4
2314 121354.900        -0.9828         0.4219         0.0178   1  14   0.0025   0.0034   0.0047  -0.0017   0.0025  -0.0009  -0.00   12.5
2314 121354.950        -0.9827         0.4220         0.0175   1  14   0.0025   0.0034   0.0047  -0.0017   0.0025  -0.0009  -0.00   12.7
2314 121355.000        -0.9820         0.4217         0.0175   1  14   0.0025   0.0034   0.0047  -0.0017   0.0025  -0.0009  -0.00   12.8
2314 121355.050        -0.9824         0.4215         0.0179   1  14   0.0025   0.0034   0.0047  -0.0017   0.0025  -0.0009  -0.00   13.0
2314 121355.100        -0.9821         0.4214         0.0200   1  14   0.0025   0.0034   0.0047  -0.0017   0.0025  -0.0009  -0.00   13.1
2314 121355.150        -0.9816         0.4215         0.0213   1  14   0.0025   0.0034   0.0047  -0.0017   0.0025  -0.0009  -0.00   13.2
2314 121355.200        -0.9823         0.4219         0.0224   1  14   0.0025   0.0034   0.0047  -0.0017   0.0025  -0.0009  -0.00   13.4
2314 121355.250        -0.9825         0.4214         0.0227   1  14   0.0025   0.0034   0.0047  -0.0017   0.0025  -0.0009  -0.00   13.5
2314 121355.300        -0.9830         0.4218         0.0225   1  14   0.0025   0.0034   0.0047  -0.0017   0.0025  -0.0009  -0.00   13.7
2314 121355.350        -0.9827         0.4224         0.0226   1  14   0.0025   0.0034   0.0047  -0.0017   0.0025  -0.0009  -0.00   13.8
2314 121355.400        -0.9831         0.4222         0.0230   1  14   0.0025   0.0034   0.0047  -0.0017   0.0025  -0.0009  -0.00   14.0
2314 121355.450        -0.9827         0.4210         0.0230   1  14   0.0025   0.0034   0.0047  -0.0017   0.0025  -0.0009  -0.00   14.1
2314 121355.500        -0.9832         0.4209         0.0221   1  14   0.0025   0.0034   0.0047  -0.0017   0.0025  -0.0009  -0.00   14.3
2314 121355.550        -0.9832         0.4207         0.0216   1  14   0.0025   0.0034   0.0047  -0.0017   0.0025  -0.0009  -0.00   14.4
2314 121355.600        -0.9835         0.4200         0.0221   1  14   0.0025   0.0034   0.0047  -0.0017   0.0025  -0.0009  -0.00   14.5
2314 121355.650        -0.9842         0.4198         0.0229   1  14   0.0025   0.0034   0.0047  -0.0017   0.0025  -0.0009  -0.00   14.7
2314 121355.700        -0.9835         0.4187         0.0212   1  14   0.0025   0.0034   0.0047  -0.0017   0.0025  -0.0009  -0.00   14.8
2314 121355.750        -0.9831         0.4180         0.0205   1  14   0.0025   0.0034   0.0047  -0.0017   0.0025  -0.0009  -0.00   15.0
2314 121355.800        -0.9827         0.4178         0.0206   1  14   0.0025   0.0034   0.0047  -0.0017   0.0025  -0.0009  -0.00   15.1
2314 121355.850        -0.9823         0.4172         0.0199   1  14   0.0025   0.0034   0.0047  -0.0017   0.0025  -0.0009  -0.00   15.2
2314 121355.900        -0.9815         0.4167         0.0176   1  14   0.0025   0.0034   0.0047  -0.0017   0.0025  -0.0009  -0.00   15.4
2314 121355.950        -0.9814         0.4168         0.0171   1  14   0.0025   0.0034   0.0047  -0.0017   0.0025  -0.0009  -0.00   15.6
2314 121356.000        -0.9809         0.4167         0.0174   1  14   0.0025   0.0034   0.0047  -0.0017   0.0025  -0.0009  -0.00   15.7
2314 121356.050        -0.9811         0.4168         0.0176   1  14   0.0025   0.0034   0.0047  -0.0017   0.0025  -0.0009  -0.00   15.8
2314 121356.100        -0.9823         0.4175         0.0189   1  14   0.0025   0.0034   0.0047  -0.0017   0.0025  -0.0009  -0.00   16.0
2314 121356.150        -0.9830         0.4184         0.0191   1  14   0.0025   0.0034   0.0047  -0.0017   0.0025  -0.0009  -0.00   16.1
2314 121356.200        -0.9826         0.4193         0.0199   1  14   0.0025   0.0034   0.0047  -0.0017   0.0025  -0.0009  -0.00   16.3
2314 121356.250        -0.9821         0.4207         0.0210   1  14   0.0025   0.0034   0.0047  -0.0017   0.0025  -0.0009  -0.00   16.4
2314 121356.300        -0.9817         0.4213         0.0225   1  14   0.0025   0.0034   0.0047  -0.0017   0.0025  -0.0009  -0.00   16.6
2314 121356.350        -0.9823         0.4216         0.0234   1  14   0.0025   0.0034   0.0047  -0.0017   0.0025  -0.0009  -0.00   16.7
2314 121356.400        -0.9825         0.4211         0.0233   1  14   0.0025   0.0034   0.0047  -0.0017   0.0025  -0.0009  -0.00   16.9
2314 121356.450        -0.9828         0.4221         0.0231   1  14   0.0025   0.0034   0.0047  -0.0017   0.0025  -0.0009  -0.00   17.1
2314 121356.500        -0.9835         0.4233         0.0202   1  14   0.0025   0.0034   0.0047  -0.0017   0.0025  -0.0009  -0.00   17.3
2314 121356.550        -0.9831         0.4228         0.0169   1  14   0.0025   0.0034   0.0047  -0.0017   0.0025  -0.0009  -0.00   17.4
2314 121356.600        -0.9827         0.4219         0.0154   1  14   0.0025   0.0034   0.0047  -0.0017   0.0025  -0.0009  -0.00   17.5
2314 121356.650        -0.9836         0.4217         0.0159   1  14   0.0025   0.0034   0.0047  -0.0017   0.0025  -0.0009  -0.00   17.6
2314 121356.700        -0.9841         0.4214         0.0156   1  14   0.0025   0.0034   0.0047  -0.0017   0.0025  -0.0009  -0.00   17.8
2314 121356.750        -0.9843         0.4204         0.0134   1  14   0.0025   0.0034   0.0047  -0.0017   0.0025  -0.0009  -0.00   18.0
2314 121356.800        -0.9843         0.4200         0.0114   1  14   0.0025   0.0034   0.0047  -0.0017   0.0025  -0.0009  -0.00   18.1
2314 121356.850        -0.9836         0.4184         0.0093   1  14   0.0025   0.0034   0.0047  -0.0017   0.0025  -0.0009  -0.00   18.3
2314 121356.900        -0.9820         0.4177         0.0084   1  14   0.0025   0.0034   0.0047  -0.0017   0.0025  -0.0009  -0.00   18.5
2314 121356.950        -0.9820         0.4164         0.0058   1  14   0.0025   0.0034   0.0047  -0.0017   0.0025  -0.0009  -0.00   18.6
2314 121357.000        -0.9821         0.4155         0.0039   1  14   0.0025   0.0034   0.0047  -0.0017   0.0025  -0.0009  -0.00   18.8
2314 121357.050        -0.9815         0.4154         0.0037   1  14   0.0025   0.0034   0.0047  -0.0017   0.0025  -0.0009  -0.00   18.9
2314 121357.100        -0.9804         0.4152         0.0043   1  14   0.0025   0.0034   0.0047  -0.0017   0.0025  -0.0009  -0.00   19.1
2314 121357.150        -0.9799         0.4143         0.0035   1  14   0.0025   0.0034   0.0047  -0.0017   0.0025  -0.0009  -0.00   19.2
2314 121357.200        -0.9799         0.4145         0.0048   1  14   0.0025   0.0034   0.0047  -0.0017   0.0025  -0.0009  -0.00   19.4
2314 121357.250        -0.9798         0.4147         0.0058   1  14   0.0025   0.0034   0.0047  -0.0017   0.0025  -0.0009  -0.00   19.6
2314 121357.300        -0.9803         0.4146         0.0066   1  14   0.0025   0.0034   0.0047  -0.0017   0.0025  -0.0009  -0.00   19.7
2314 121357.350        -0.9809         0.4152         0.0073   1  14   0.0025   0.0034   0.0047  -0.0017   0.0025  -0.0009  -0.00   19.7
2314 121357.400        -0.9811         0.4153         0.0064   1  14   0.0025   0.0034   0.0047  -0.0017   0.0025  -0.0009  -0.00   19.8
2314 121357.450        -0.9810         0.4158         0.0067   1  14   0.0025   0.0034   0.0047  -0.0017   0.0025  -0.0009  -0.00   19.9
2314 121357.500        -0.9813         0.4168         0.0076   1  14   0.0025   0.0034   0.0047  -0.0017   0.0025  -0.0009  -0.00   20.0
2314 121357.550        -0.9816         0.4172         0.0070   1  14   0.0025   0.0034   0.0047  -0.0017   0.0025  -0.0009  -0.00   20.1
2314 121357.600        -0.9825         0.4177         0.0072   1  14   0.0025   0.0034   0.0047  -0.0017   0.0025  -0.0009  -0.00   20.1
2314 121357.650        -0.9828         0.4180         0.0069   1  14   0.0025   0.0034   0.0047  -0.0017   0.0025  -0.0009  -0.00   20.2
2314 121357.700        -0.9827         0.4181         0.0055   1  14   0.0025   0.0034   0.0047  -0.0017   0.0025  -0.0009  -0.00   20.3
2314 121357.750        -0.9825         0.4179         0.0057   1  14   0.0025   0.0034   0.0047  -0.0017   0.0025  -0.0009  -0.00   20.3
2314 121357.800        -0.9824         0.4180         0.0072   1  14   0.0025   0.0034   0.0047  -0.0017   0.0025  -0.0009  -0.00   20.4
2314 121357.850        -0.9823         0.4175         0.0072   1  14   0.0025   0.0034   0.0047  -0.0017   0.0025  -0.0009  -0.00   20.5
2314 121357.900        -0.9821         0.4176         0.0080   1  14   0.0025   0.0034   0.0047  -0.0017   0.0025  -0.0009  -0.00   20.6
2314 121357.950        -0.9817         0.4174         0.0099   1  14   0.0025   0.0034   0.0047  -0.0017   0.0025  -0.0009  -0.00   20.6
2314 121358.000        -0.9810         0.4175         0.0107   1  14   0.0025   0.0034   0.0047  -0.0017   0.0025  -0.0009  -0.00   20.7
2314 121358.050        -0.9808         0.4173         0.0108   1  14   0.0025   0.0034   0.0047  -0.0017   0.0025  -0.0009  -0.00   20.8
2314 121358.100        -0.9807         0.4169         0.0127   1  14   0.0025   0.0034   0.0047  -0.0017   0.0025  -0.0009  -0.00   20.9
2314 121358.150        -0.9805         0.4166         0.0151   1  14   0.0025   0.0034   0.0047  -0.0017   0.0025  -0.0009  -0.00   21.0
2314 121358.200        -0.9800         0.4166         0.0163   1  14   0.0025   0.0034   0.0047  -0.0017   0.0025  -0.0009  -0.00   21.1
2314 121358.250        -0.9798         0.4163         0.0146   1  14   0.0025   0.0034   0.0047  -0.0017   0.0025  -0.0009  -0.00   21.2
2314 121358.300        -0.9805         0.4169         0.0136   1  14   0.0025   0.0034   0.0047  -0.0017   0.0025  -0.0009  -0.00   21.3
2314 121358.350        -0.9809         0.4169         0.0122   1  14   0.0025   0.0034   0.0047  -0.0017   0.0025  -0.0009  -0.00   21.4
2314 121358.400        -0.9813         0.4163         0.0102   1  14   0.0025   0.0034   0.0047  -0.0017   0.0025  -0.0009  -0.00   21.4
2314 121358.450        -0.9819         0.4166         0.0090   1  14   0.0025   0.0034   0.0047  -0.0017   0.0025  -0.0009  -0.00   21.5
2314 121358.500        -0.9827         0.4170         0.0081   1  14   0.0025   0.0034   0.0047  -0.0017   0.0025  -0.0009  -0.00   21.6
2314 121358.550        -0.9828         0.4176         0.0083   1  14   0.0025   0.0034   0.0047  -0.0017   0.0025  -0.0009  -0.00   21.7
2314 121358.600        -0.9834         0.4187         0.0084   1  14   0.0025   0.0034   0.0047  -0.0017   0.0025  -0.0009  -0.00   21.8
2314 121358.650        -0.9838         0.4196         0.0072   1  14   0.0025   0.0034   0.0047  -0.0017   0.0025  -0.0009  -0.00   21.9
2314 121358.700        -0.9841         0.4197         0.0074   1  14   0.0025   0.0034   0.0047  -0.0017   0.0025  -0.0009  -0.00   21.9
2314 121358.750        -0.9849         0.4194         0.0078   1  14   0.0025   0.0034   0.0047  -0.0017   0.0025  -0.0009  -0.00   22.0
2314 121358.800        -0.9852         0.4194         0.0098   1  14   0.0025   0.0034   0.0047  -0.0017   0.0025  -0.0009  -0.00   22.1
2314 121358.850        -0.9862         0.4197         0.0096   1  14   0.0025   0.0034   0.0047  -0.0017   0.0025  -0.0009  -0.00   22.2
2314 121358.900        -0.9861         0.4197         0.0107   1  14   0.0025   0.0034   0.0047  -0.0017   0.0025  -0.0009  -0.00   22.2
2314 121358.950        -0.9858         0.4192         0.0125   1  14   0.0025   0.0034   0.0047  -0.0017   0.0025  -0.0009  -0.00   22.3
2314 121359.000        -0.9858         0.4193         0.0139   1  14   0.0025   0.0034   0.0047  -0.0017   0.0025  -0.0009  -0.00   22.4
2314 121359.050        -0.9860         0.4196         0.0166   1  14   0.0025   0.0034   0.0047  -0.0017   0.0025  -0.0009  -0.00   22.5
2314 121359.100        -0.9851         0.4200         0.0192   1  14   0.0025   0.0034   0.0047  -0.0017   0.0025  -0.0009  -0.00   22.6
2314 121359.150        -0.9836         0.4208         0.0226   1  14   0.0025   0.0034   0.0047  -0.0017   0.0025  -0.0009  -0.00   22.7
2314 121359.200        -0.9823         0.4220         0.0283   1  14   0.0025   0.0034   0.0047  -0.0017   0.0025  -0.0008  -0.00   22.8
2314 121359.250        -0.9819         0.4239         0.0345   1  14   0.0025   0.0034   0.0047  -0.0017   0.0025  -0.0008  -0.00   22.9
2314 121359.300        -0.9818         0.4254         0.0382   1  14   0.0025   0.0034   0.0047  -0.0017   0.0025  -0.0008  -0.00   23.0
2314 121359.350        -0.9811         0.4257         0.0404   1  14   0.0025   0.0034   0.0047  -0.0017   0.0025  -0.0008  -0.00   23.1
2314 121359.400        -0.9813         0.4264         0.0422   1  14   0.0025   0.0034   0.0047  -0.0017   0.0025  -0.0008  -0.00   23.1
2314 121359.450        -0.9821         0.4277         0.0437   1  14   0.0025   0.0034   0.0047  -0.0017   0.0025  -0.0008  -0.00   23.3
2314 121359.500        -0.9825         0.4288         0.0446   1  14   0.0025   0.0034   0.0047  -0.0017   0.0025  -0.0008  -0.00   23.4
2314 121359.550        -0.9831         0.4296         0.0457   1  14   0.0025   0.0034   0.0047  -0.0017   0.0025  -0.0008  -0.00   23.5
2314 121359.600        -0.9833         0.4298         0.0472   1  14   0.0025   0.0034   0.0047  -0.0017   0.0025  -0.0008  -0.00   23.5
2314 121359.650        -0.9837         0.4302         0.0480   1  14   0.0025   0.0034   0.0047  -0.0017   0.0025  -0.0008  -0.00   23.6
2314 121359.700        -0.9839         0.4302         0.0479   1  14   0.0025   0.0034   0.0047  -0.0017   0.0025  -0.0008  -0.00   23.7
2314 121359.750        -0.9839         0.4295         0.0463   1  14   0.0025   0.0034   0.0047  -0.0017   0.0025  -0.0008  -0.00   23.8
2314 121359.800        -0.9835         0.4282         0.0455   1  14   0.0025   0.0034   0.0047  -0.0017   0.0025  -0.0008  -0.00   23.9
2314 121359.850        -0.9827         0.4273         0.0446   1  14   0.0025   0.0034   0.0047  -0.0017   0.0025  -0.0008  -0.00   24.0
2314 121359.900        -0.9820         0.4271         0.0431   1  14   0.0025   0.0034   0.0047  -0.0017   0.0025  -0.0008  -0.00   24.0
2314 121359.950        -0.9815         0.4253         0.0400   1  14   0.0025   0.0034   0.0047  -0.0017   0.0025  -0.0008  -0.00   24.1
2314 121360.000        -0.9815         0.4233         0.0370   1  14   0.0025   0.0034   0.0047  -0.0017   0.0025  -0.0008  -0.00   24.2
2314 121360.050        -0.9817         0.4221         0.0344   1  14   0.0025   0.0034   0.0047  -0.0017   0.0025  -0.0008  -0.00   24.3
2314 121360.100        -0.9819         0.4216         0.0327   1  14   0.0025   0.0034   0.0047  -0.0017   0.0025  -0.0008  -0.00   24.4
2314 121360.150        -0.9816         0.4205         0.0318   1  14   0.0025   0.0034   0.0047  -0.0017   0.0025  -0.0008  -0.00   24.5
2314 121360.200        -0.9811         0.4197         0.0292   1  14   0.0025   0.0034   0.0047  -0.0017   0.0025  -0.0008  -0.00   24.5
2314 121360.250        -0.9814         0.4201         0.0266   1  14   0.0025   0.0034   0.0047  -0.0017   0.0025  -0.0008  -0.00   24.6
2314 121360.300        -0.9822         0.4202         0.0241   1  14   0.0025   0.0034   0.0047  -0.0017   0.0025  -0.0008  -0.00   24.7
2314 121360.350        -0.9827         0.4209         0.0220   1  14   0.0025   0.0034   0.0047  -0.0017   0.0025  -0.0008  -0.00   24.8
2314 121360.400        -0.9827         0.4209         0.0207   1  14   0.0025   0.0034   0.0047  -0.0017   0.0025  -0.0008  -0.00   24.9
2314 121360.450        -0.9826         0.4211         0.0204   1  14   0.0025   0.0034   0.0047  -0.0017   0.0025  -0.0008  -0.00   25.0
2314 121360.500        -0.9824         0.4219         0.0196   1  14   0.0025   0.0034   0.0047  -0.0017   0.0025  -0.0008  -0.00   25.1
2314 121360.550        -0.9825         0.4223         0.0193   1  14   0.0025   0.0034   0.0047  -0.0017   0.0025  -0.0008  -0.00   25.2
2314 121360.600        -0.9828         0.4223         0.0192   1  14   0.0025   0.0034   0.0047  -0.0017   0.0025  -0.0008  -0.00   25.3
2314 121360.650        -0.9822         0.4214         0.0190   1  14   0.0025   0.0034   0.0047  -0.0017   0.0025  -0.0008  -0.00   25.4
2314 121360.700        -0.9824         0.4214         0.0193   1  14   0.0025   0.0034   0.0047  -0.0017   0.0025  -0.0008  -0.00   25.5
2314 121360.750        -0.9828         0.4217         0.0199   1  14   0.0025   0.0034   0.0047  -0.0017   0.0025  -0.0008  -0.00   25.6
2314 121360.800        -0.9837         0.4224         0.0204   1  14   0.0025   0.0034   0.0047  -0.0017   0.0025  -0.0008  -0.00   25.7
2314 121360.850        -0.9845         0.4234         0.0223   1  14   0.0025   0.0034   0.0047  -0.0017   0.0025  -0.0008  -0.00   25.7
2314 121360.900        -0.9849         0.4238         0.0237   1  14   0.0025   0.0034   0.0047  -0.0017   0.0025  -0.0008  -0.00   25.8
2314 121360.950        -0.9850         0.4240         0.0259   1  14   0.0025   0.0034   0.0047  -0.0017   0.0025  -0.0008  -0.00   25.9
2314 121361.000        -0.9852         0.4244         0.0276   1  14   0.0025   0.0034   0.0047  -0.0017   0.0025  -0.0008  -0.00   26.0
2314 121361.050        -0.9850         0.4245         0.0289   1  14   0.0025   0.0034   0.0047  -0.0017   0.0025  -0.0008  -0.00   26.2
2314 121361.100        -0.9852         0.4257         0.0340   1  14   0.0025   0.0034   0.0047  -0.0017   0.0025  -0.0008  -0.00   26.3
2314 121361.150        -0.9850         0.4259         0.0377   1  14   0.0025   0.0034   0.0047  -0.0017   0.0025  -0.0008  -0.00   26.3
2314 121361.200        -0.9848         0.4250         0.0384   1  14   0.0025   0.0034   0.0047  -0.0017   0.0025  -0.0008  -0.00   26.4
2314 121361.250        -0.9836         0.4250         0.0376   1  14   0.0025   0.0034   0.0047  -0.0017   0.0025  -0.0008  -0.00   26.5
2314 121361.300        -0.9830         0.4254         0.0363   1  14   0.0025   0.0034   0.0047  -0.0017   0.0025  -0.0008  -0.00   26.6
2314 121361.350        -0.9823         0.4249         0.0341   1  14   0.0025   0.0034   0.0047  -0.0017   0.0025  -0.0008  -0.00   26.7
2314 121361.400        -0.9820         0.4237         0.0325   1  14   0.0025   0.0034   0.0047  -0.0017   0.0025  -0.0008  -0.00   26.8
2314 121361.450        -0.9811         0.4227         0.0301   1  14   0.0025   0.0034   0.0047  -0.0017   0.0025  -0.0008  -0.00   26.9
2314 121361.500        -0.9816         0.4215         0.0270   1  14   0.0025   0.0034   0.0047  -0.0017   0.0025  -0.0008  -0.00   27.0
2314 121361.550        -0.9819         0.4207         0.0233   1  14   0.0025   0.0034   0.0047  -0.0017   0.0025  -0.0008  -0.00   27.1
2314 121361.600        -0.9810         0.4196         0.0203   1  14   0.0025   0.0034   0.0047  -0.0017   0.0025  -0.0008  -0.00   27.2
2314 121361.650        -0.9809         0.4182         0.0161   1  14   0.0025   0.0034   0.0047  -0.0017   0.0025  -0.0008  -0.00   27.3
2314 121361.700        -0.9816         0.4183         0.0129   1  14   0.0025   0.0034   0.0047  -0.0017   0.0025  -0.0008  -0.00   27.4
2314 121361.750        -0.9814         0.4171         0.0085   1  14   0.0025   0.0034   0.0047  -0.0017   0.0025  -0.0008  -0.00   27.5
2314 121361.800        -0.9803         0.4156         0.0050   1  14   0.0025   0.0034   0.0047  -0.0017   0.0025  -0.0008  -0.00   27.6
2314 121361.850        -0.9802         0.4147         0.0025   1  14   0.0025   0.0034   0.0047  -0.0017   0.0025  -0.0008  -0.00   27.7
2314 121361.900        -0.9809         0.4144         0.0012   1  14   0.0025   0.0034   0.0047  -0.0017   0.0025  -0.0008  -0.00   27.7
