% program   : rnx2rtkp ver.demo5 b34i
% inp file  : /workspaces/emillma-sensorrig/datasets/mai15/2024-05-15T12-33-07_navdata.26.obs
% inp file  : /workspaces/emillma-sensorrig/datasets/mai15/2024-05-15T12-33-07_navdata.27.obs
% inp file  : /workspaces/emillma-sensorrig/src/graphnss/data/cpos/rnx3/1hour/1sec/2024/136/TRDS/TRDS00NOR_S_20241361200_01H_01S_MO.rnx.gz
% inp file  : /workspaces/emillma-sensorrig/src/graphnss/data/cpos/rnx3/1hour/1sec/2024/136/TRDS/TRDS00NOR_S_20241361200_01H_GN.rnx.gz
% inp file  : /workspaces/emillma-sensorrig/src/graphnss/data/cpos/rnx3/1hour/1sec/2024/136/TRDS/TRDS00NOR_S_20241361200_01H_EN.rnx.gz
% inp file  : /workspaces/emillma-sensorrig/src/graphnss/data/cpos/rnx3/1hour/1sec/2024/136/TRDS/TRDS00NOR_S_20241361200_01H_RN.rnx.gz
% inp file  : /workspaces/emillma-sensorrig/src/graphnss/data/cpos/rnx3/1hour/1sec/2024/136/TRDS/TRDS00NOR_S_20241361200_01H_CN.rnx.gz
% obs start : 2024/05/15 12:33:25.2 GPST (week2314 304405.2s)
% obs end   : 2024/05/15 12:36:44.9 GPST (week2314 304604.9s)
%
% (e/n/u-baseline=WGS84,Q=1:fix,2:float,3:sbas,4:dgps,5:single,6:ppp,ns=# of satellites)
%  GPST          e-baseline(m)  n-baseline(m)  u-baseline(m)   Q  ns   sde(m)   sdn(m)   sdu(m)  sden(m)  sdnu(m)  sdue(m) age(s)  ratio
2314 304405.150        -0.8598         0.3243         0.2461   2  14   0.9986   1.4377   3.1392  -0.0321   1.3460  -0.5477  -0.00    0.0
2314 304405.200        -0.8667         0.3396         0.2775   2  14   0.7424   1.0890   2.3694   0.0245   1.0244  -0.3837  -0.00    0.0
2314 304405.250        -0.8691         0.3461         0.3114   2  14   0.6172   0.9119   1.9813   0.0274   0.8593  -0.3108  -0.00    0.0
2314 304405.300        -0.8717         0.3492         0.3344   2  14   0.5394   0.8001   1.7373   0.0268   0.7548  -0.2678  -0.00    0.0
2314 304405.350        -0.8693         0.3562         0.3384   2  14   0.4852   0.7214   1.5657   0.0256   0.6809  -0.2386  -0.00    0.0
2314 304405.400        -0.8649         0.3583         0.3315   2  14   0.4446   0.6621   1.4366   0.0243   0.6252  -0.2173  -0.00    0.0
2314 304405.450        -0.8624         0.3637         0.3189   2  14   0.4128   0.6154   1.3349   0.0231   0.5813  -0.2007  -0.00    0.0
2314 304405.500        -0.8593         0.3652         0.3107   2  14   0.3869   0.5773   1.2522   0.0221   0.5455  -0.1875  -0.00    0.0
2314 304405.550        -0.8577         0.3630         0.3024   2  14   0.3654   0.5456   1.1831   0.0212   0.5155  -0.1765  -0.00    0.0
2314 304405.600        -0.8545         0.3639         0.2931   2  14   0.3470   0.5185   1.1243   0.0204   0.4900  -0.1673  -0.00    0.0
2314 304405.650        -0.8519         0.3651         0.2870   2  14   0.3312   0.4951   1.0735   0.0196   0.4680  -0.1594  -0.00    0.0
2314 304405.700        -0.8519         0.3677         0.2884   2  14   0.3174   0.4747   1.0290   0.0189   0.4486  -0.1524  -0.00    0.0
2314 304405.750        -0.8509         0.3673         0.2841   2  14   0.3052   0.4565   0.9896   0.0183   0.4315  -0.1464  -0.00    0.0
2314 304405.800        -0.8510         0.3669         0.2830   2  14   0.2943   0.4403   0.9544   0.0178   0.4162  -0.1410  -0.00    0.0
2314 304405.850        -0.8507         0.3651         0.2790   2  14   0.2845   0.4257   0.9227   0.0173   0.4024  -0.1361  -0.00    0.0
2314 304405.900        -0.8498         0.3649         0.2765   2  14   0.2756   0.4125   0.8939   0.0168   0.3899  -0.1317  -0.00    0.0
2314 304405.950        -0.8484         0.3652         0.2790   2  14   0.2675   0.4004   0.8677   0.0164   0.3784  -0.1277  -0.00    0.0
2314 304406.000        -0.8458         0.3649         0.2786   2  14   0.2600   0.3893   0.8436   0.0160   0.3680  -0.1241  -0.00    0.0
2314 304406.050        -0.8441         0.3674         0.2802   2  14   0.2532   0.3791   0.8214   0.0157   0.3583  -0.1207  -0.00    0.0
2314 304406.100        -0.8432         0.3704         0.2870   2  14   0.2468   0.3696   0.8009   0.0153   0.3493  -0.1176  -0.00    0.0
2314 304406.150        -0.8430         0.3717         0.2893   2  14   0.2410   0.3609   0.7819   0.0150   0.3410  -0.1147  -0.00    0.0
2314 304406.200        -0.8424         0.3747         0.2963   2  14   0.2355   0.3527   0.7641   0.0147   0.3333  -0.1121  -0.00    0.0
2314 304406.250        -0.8416         0.3786         0.2989   2  14   0.2303   0.3450   0.7475   0.0144   0.3260  -0.1096  -0.00    3.0
2314 304406.300        -0.8407         0.3814         0.3048   2  14   0.2255   0.3379   0.7319   0.0142   0.3192  -0.1072  -0.00    2.7
2314 304406.350        -0.9641         0.4385        -0.0137   1  14   0.0024   0.0034   0.0067  -0.0004   0.0030  -0.0010  -0.00    3.0
2314 304406.400        -0.9638         0.4377        -0.0136   1  14   0.0024   0.0034   0.0066  -0.0003   0.0029  -0.0010  -0.00    3.0
2314 304406.450        -0.9633         0.4367        -0.0136   1  14   0.0024   0.0034   0.0065  -0.0003   0.0029  -0.0010  -0.00    3.1
2314 304406.500        -0.9626         0.4377        -0.0158   1  14   0.0024   0.0033   0.0064  -0.0003   0.0028  -0.0010  -0.00    3.1
2314 304406.550        -0.9623         0.4387        -0.0191   1  14   0.0024   0.0033   0.0063  -0.0003   0.0028  -0.0010  -0.00    3.1
2314 304406.600        -0.9621         0.4390        -0.0209   1  14   0.0024   0.0033   0.0062  -0.0003   0.0027  -0.0009  -0.00    3.2
2314 304406.650        -0.9619         0.4377        -0.0211   1  14   0.0024   0.0033   0.0061  -0.0003   0.0027  -0.0009  -0.00    3.2
2314 304406.700        -0.9616         0.4369        -0.0207   1  14   0.0024   0.0033   0.0061  -0.0003   0.0027  -0.0009  -0.00    3.3
2314 304406.750        -0.9603         0.4371        -0.0214   1  14   0.0024   0.0033   0.0060  -0.0002   0.0026  -0.0009  -0.00    3.3
2314 304406.800        -0.9600         0.4369        -0.0217   1  14   0.0024   0.0033   0.0059  -0.0002   0.0026  -0.0009  -0.00    3.3
2314 304406.850        -0.9602         0.4372        -0.0211   1  14   0.0024   0.0033   0.0058  -0.0002   0.0026  -0.0009  -0.00    3.4
2314 304406.900        -0.9618         0.4367        -0.0173   1  14   0.0023   0.0033   0.0057  -0.0002   0.0025  -0.0009  -0.00    3.4
2314 304406.950        -0.9627         0.4365        -0.0144   1  14   0.0023   0.0033   0.0057  -0.0002   0.0025  -0.0009  -0.00    3.4
2314 304407.000        -0.9635         0.4369        -0.0129   1  14   0.0023   0.0032   0.0056  -0.0002   0.0025  -0.0008  -0.00    3.5
2314 304407.050        -0.9638         0.4381        -0.0124   1  14   0.0023   0.0032   0.0055  -0.0002   0.0024  -0.0008  -0.00    3.5
2314 304407.100        -0.9643         0.4393        -0.0106   1  14   0.0023   0.0032   0.0055  -0.0001   0.0024  -0.0008  -0.00    3.5
2314 304407.150        -0.9654         0.4405        -0.0083   1  14   0.0023   0.0032   0.0054  -0.0001   0.0024  -0.0008  -0.00    3.5
2314 304407.200        -0.9674         0.4411        -0.0041   1  14   0.0023   0.0032   0.0054  -0.0001   0.0024  -0.0008  -0.00    3.5
2314 304407.250        -0.9685         0.4422        -0.0021   1  14   0.0023   0.0032   0.0053  -0.0001   0.0023  -0.0008  -0.00    3.5
2314 304407.300        -0.9704         0.4466         0.0011   1  14   0.0023   0.0032   0.0053   0.0003   0.0023  -0.0008  -0.00    3.4
2314 304407.350        -0.9703         0.4468         0.0038   1  14   0.0023   0.0032   0.0052   0.0003   0.0023  -0.0008  -0.00    3.4
2314 304407.400        -0.9698         0.4464         0.0049   1  14   0.0023   0.0032   0.0052   0.0003   0.0023  -0.0008  -0.00    3.4
2314 304407.450        -0.9697         0.4463         0.0055   1  14   0.0023   0.0032   0.0051   0.0003   0.0022  -0.0008  -0.00    3.4
2314 304407.500        -0.9694         0.4451         0.0058   1  14   0.0023   0.0032   0.0051   0.0003   0.0022  -0.0007  -0.00    3.4
2314 304407.550        -0.9698         0.4438         0.0053   1  14   0.0023   0.0032   0.0050   0.0003   0.0022  -0.0007  -0.00    3.4
2314 304407.600        -0.9704         0.4426         0.0048   1  14   0.0023   0.0032   0.0050   0.0003   0.0022  -0.0007  -0.00    3.4
2314 304407.650        -0.9701         0.4432         0.0039   1  14   0.0023   0.0032   0.0050   0.0003   0.0022  -0.0007  -0.00    3.4
2314 304407.700        -0.9697         0.4425         0.0036   1  14   0.0023   0.0032   0.0049   0.0003   0.0022  -0.0007  -0.00    3.4
2314 304407.750        -0.9693         0.4420         0.0037   1  14   0.0023   0.0032   0.0049   0.0003   0.0021  -0.0007  -0.00    3.4
2314 304407.800        -0.9689         0.4425         0.0032   1  14   0.0023   0.0032   0.0049   0.0003   0.0021  -0.0007  -0.00    3.4
2314 304407.850        -0.9678         0.4426         0.0025   1  14   0.0023   0.0032   0.0048   0.0003   0.0021  -0.0007  -0.00    3.4
2314 304407.900        -0.9670         0.4420         0.0020   1  14   0.0023   0.0032   0.0048   0.0003   0.0021  -0.0007  -0.00    3.4
2314 304407.950        -0.9675         0.4413         0.0021   1  14   0.0023   0.0032   0.0048   0.0003   0.0021  -0.0007  -0.00    3.4
2314 304408.000        -0.9679         0.4405         0.0012   1  14   0.0023   0.0032   0.0048   0.0003   0.0021  -0.0007  -0.00    3.4
2314 304408.050        -0.9679         0.4398        -0.0000   1  14   0.0023   0.0032   0.0047   0.0003   0.0021  -0.0007  -0.00    3.4
2314 304408.100        -0.9673         0.4391        -0.0024   1  14   0.0023   0.0032   0.0047   0.0003   0.0021  -0.0007  -0.00    3.4
2314 304408.150        -0.9678         0.4389        -0.0034   1  14   0.0023   0.0032   0.0047   0.0003   0.0021  -0.0007  -0.00    3.3
2314 304408.200        -0.9682         0.4390        -0.0041   1  14   0.0023   0.0032   0.0047   0.0003   0.0021  -0.0007  -0.00    3.3
2314 304408.250        -0.9688         0.4392        -0.0047   1  14   0.0023   0.0032   0.0047   0.0003   0.0020  -0.0007  -0.00    3.3
2314 304408.300        -0.9689         0.4392        -0.0062   1  14   0.0023   0.0032   0.0047   0.0003   0.0020  -0.0007  -0.00    3.3
2314 304408.350        -0.9685         0.4394        -0.0080   1  14   0.0023   0.0032   0.0046   0.0003   0.0020  -0.0007  -0.00    3.3
2314 304408.400        -0.9681         0.4398        -0.0099   1  14   0.0023   0.0032   0.0046   0.0003   0.0020  -0.0007  -0.00    3.3
2314 304408.450        -0.9667         0.4406        -0.0107   1  14   0.0023   0.0032   0.0046   0.0003   0.0020  -0.0007  -0.00    3.3
2314 304408.500        -0.9658         0.4417        -0.0099   1  14   0.0023   0.0032   0.0046   0.0003   0.0020  -0.0007  -0.00    3.3
2314 304408.550        -0.9655         0.4430        -0.0084   1  14   0.0023   0.0032   0.0046   0.0003   0.0020  -0.0007  -0.00    3.3
2314 304408.600        -0.9646         0.4429        -0.0070   1  14   0.0023   0.0032   0.0046   0.0003   0.0020  -0.0007  -0.00    3.3
2314 304408.650        -0.9647         0.4424        -0.0051   1  14   0.0023   0.0032   0.0046   0.0003   0.0020  -0.0007  -0.00    3.3
2314 304408.700        -0.9647         0.4418        -0.0017   1  14   0.0023   0.0032   0.0046   0.0003   0.0020  -0.0007  -0.00    3.3
2314 304408.750        -0.9637         0.4414        -0.0000   1  14   0.0023   0.0032   0.0046   0.0003   0.0020  -0.0007  -0.00    3.4
2314 304408.800        -0.9636         0.4412        -0.0005   1  14   0.0023   0.0032   0.0046   0.0003   0.0020  -0.0007  -0.00    3.3
2314 304408.850        -0.9645         0.4409        -0.0002   1  14   0.0023   0.0032   0.0046   0.0003   0.0020  -0.0007  -0.00    3.3
2314 304408.900        -0.9646         0.4404        -0.0011   1  14   0.0023   0.0032   0.0046   0.0003   0.0020  -0.0007  -0.00    3.3
2314 304408.950        -0.9646         0.4407        -0.0011   1  14   0.0023   0.0032   0.0046   0.0003   0.0020  -0.0007  -0.00    3.3
2314 304409.000        -0.9646         0.4418        -0.0007   1  14   0.0023   0.0032   0.0046   0.0003   0.0020  -0.0007  -0.00    3.3
2314 304409.050        -0.9645         0.4423        -0.0013   1  14   0.0023   0.0032   0.0046   0.0003   0.0020  -0.0007  -0.00    3.3
2314 304409.100        -0.9651         0.4422        -0.0027   1  14   0.0023   0.0032   0.0046   0.0003   0.0020  -0.0007  -0.00    3.3
2314 304409.150        -0.9659         0.4415        -0.0027   1  14   0.0023   0.0032   0.0046   0.0003   0.0020  -0.0007  -0.00    3.2
2314 304409.200        -0.9663         0.4416        -0.0034   1  14   0.0023   0.0032   0.0046   0.0003   0.0020  -0.0007  -0.00    3.2
2314 304409.250        -0.9674         0.4423        -0.0028   1  14   0.0023   0.0032   0.0046   0.0003   0.0020  -0.0007  -0.00    3.2
2314 304409.300        -0.9669         0.4427        -0.0035   1  14   0.0023   0.0032   0.0046   0.0003   0.0020  -0.0007  -0.00    3.2
2314 304409.350        -0.9694         0.4419        -0.0035   1  14   0.0023   0.0032   0.0046   0.0003   0.0020  -0.0007  -0.00    3.2
2314 304409.400        -0.9730         0.4413        -0.0030   1  14   0.0023   0.0032   0.0046   0.0003   0.0020  -0.0007  -0.00    3.2
2314 304409.450        -0.9768         0.4408        -0.0034   1  14   0.0023   0.0032   0.0046   0.0003   0.0020  -0.0007  -0.00    3.2
2314 304409.500        -0.9786         0.4407        -0.0042   1  14   0.0023   0.0032   0.0046   0.0003   0.0020  -0.0007  -0.00    3.3
2314 304409.550        -0.9800         0.4406        -0.0074   1  14   0.0023   0.0032   0.0046   0.0003   0.0020  -0.0007  -0.00    3.3
2314 304409.600        -0.9813         0.4397        -0.0093   1  14   0.0023   0.0032   0.0046   0.0003   0.0020  -0.0007  -0.00    3.3
2314 304409.650        -0.9837         0.4382        -0.0106   1  14   0.0023   0.0032   0.0046   0.0003   0.0020  -0.0007  -0.00    3.4
2314 304409.700        -0.9847         0.4386        -0.0108   1  14   0.0023   0.0032   0.0046   0.0003   0.0020  -0.0007  -0.00    3.4
2314 304409.750        -0.9856         0.4393        -0.0103   1  14   0.0023   0.0032   0.0046   0.0003   0.0020  -0.0007  -0.00    3.5
2314 304409.800        -0.9861         0.4400        -0.0104   1  14   0.0023   0.0032   0.0046   0.0003   0.0020  -0.0007  -0.00    3.6
2314 304409.850        -0.9870         0.4412        -0.0121   1  13   0.0023   0.0032   0.0046   0.0003   0.0020  -0.0006  -0.00    4.0
2314 304409.900        -0.9876         0.4426        -0.0116   1  13   0.0024   0.0032   0.0046   0.0003   0.0020  -0.0006  -0.00    4.1
2314 304409.950        -0.9880         0.4440        -0.0098   1  13   0.0024   0.0032   0.0046   0.0003   0.0020  -0.0005  -0.00    4.2
2314 304410.000        -0.9876         0.4442        -0.0096   1  13   0.0024   0.0032   0.0046   0.0003   0.0020  -0.0005  -0.00    4.3
2314 304410.050        -0.9874         0.4442        -0.0117   1  13   0.0024   0.0032   0.0046   0.0003   0.0020  -0.0005  -0.00    4.4
2314 304410.100        -0.9871         0.4448        -0.0154   1  13   0.0024   0.0032   0.0046   0.0004   0.0020  -0.0005  -0.00    4.5
2314 304410.150        -0.9865         0.4446        -0.0197   1  13   0.0024   0.0032   0.0046   0.0004   0.0020  -0.0005  -0.00    4.6
2314 304410.200        -0.9869         0.4440        -0.0251   1  13   0.0024   0.0032   0.0046   0.0004   0.0020  -0.0005  -0.00    4.7
2314 304410.250        -0.9863         0.4437        -0.0276   1  13   0.0024   0.0032   0.0046   0.0004   0.0020  -0.0005  -0.00    4.8
2314 304410.300        -0.9855         0.4429        -0.0286   1  13   0.0024   0.0032   0.0046   0.0004   0.0020  -0.0005  -0.00    5.0
2314 304410.350        -0.9854         0.4410        -0.0281   1  13   0.0024   0.0032   0.0046   0.0004   0.0020  -0.0005  -0.00    5.1
2314 304410.400        -0.9870         0.4404        -0.0294   1  13   0.0024   0.0032   0.0046   0.0003   0.0020  -0.0005  -0.00    5.2
2314 304410.450        -0.9872         0.4404        -0.0300   1  13   0.0024   0.0032   0.0046   0.0003   0.0020  -0.0005  -0.00    5.3
2314 304410.500        -0.9864         0.4405        -0.0308   1  13   0.0024   0.0032   0.0046   0.0003   0.0020  -0.0005  -0.00    5.5
2314 304410.550        -0.9865         0.4402        -0.0323   1  13   0.0024   0.0032   0.0046   0.0003   0.0020  -0.0005  -0.00    5.6
2314 304410.600        -0.9865         0.4399        -0.0330   1  13   0.0024   0.0032   0.0046   0.0003   0.0020  -0.0005  -0.00    5.7
2314 304410.650        -0.9847         0.4400        -0.0333   1  13   0.0024   0.0032   0.0046   0.0003   0.0020  -0.0005  -0.00    5.8
2314 304410.700        -0.9838         0.4398        -0.0361   1  13   0.0024   0.0032   0.0046   0.0003   0.0020  -0.0005  -0.00    6.0
2314 304410.750        -0.9838         0.4394        -0.0384   1  13   0.0024   0.0032   0.0046   0.0003   0.0020  -0.0005  -0.00    6.1
2314 304410.800        -0.9832         0.4389        -0.0413   1  13   0.0024   0.0032   0.0046   0.0003   0.0020  -0.0005  -0.00    6.2
2314 304410.850        -0.9831         0.4366        -0.0453   1  13   0.0024   0.0032   0.0046   0.0003   0.0020  -0.0005  -0.00    6.3
2314 304410.900        -0.9826         0.4347        -0.0480   1  13   0.0024   0.0032   0.0046   0.0003   0.0020  -0.0005  -0.00    6.5
2314 304410.950        -0.9826         0.4342        -0.0496   1  13   0.0024   0.0032   0.0046   0.0003   0.0020  -0.0005  -0.00    6.6
2314 304411.000        -0.9829         0.4338        -0.0498   1  13   0.0024   0.0032   0.0046   0.0003   0.0020  -0.0005  -0.00    6.8
2314 304411.050        -0.9831         0.4334        -0.0489   1  13   0.0024   0.0032   0.0046   0.0003   0.0020  -0.0005  -0.00    6.9
2314 304411.100        -0.9840         0.4333        -0.0487   1  13   0.0024   0.0032   0.0046   0.0003   0.0020  -0.0005  -0.00    7.0
2314 304411.150        -0.9852         0.4335        -0.0483   1  13   0.0024   0.0032   0.0046   0.0003   0.0020  -0.0005  -0.00    7.1
2314 304411.200        -0.9862         0.4344        -0.0473   1  13   0.0024   0.0032   0.0046   0.0003   0.0020  -0.0005  -0.00    7.2
2314 304411.250        -0.9872         0.4352        -0.0469   1  13   0.0024   0.0032   0.0046   0.0003   0.0020  -0.0005  -0.00    7.3
2314 304411.300        -0.9886         0.4343        -0.0460   1  13   0.0024   0.0032   0.0046   0.0003   0.0020  -0.0005  -0.00    7.4
2314 304411.350        -0.9920         0.4273        -0.0426   1  13   0.0024   0.0032   0.0046   0.0003   0.0020  -0.0005  -0.00    7.5
2314 304411.400        -0.9986         0.4121        -0.0390   1  13   0.0024   0.0032   0.0046   0.0003   0.0020  -0.0005  -0.00    7.6
2314 304411.450        -1.0079         0.3910        -0.0355   1  13   0.0024   0.0032   0.0046   0.0003   0.0020  -0.0005  -0.00    7.6
2314 304411.500        -1.0176         0.3663        -0.0328   1  13   0.0024   0.0032   0.0046   0.0003   0.0020  -0.0005  -0.00    7.7
2314 304411.550        -1.0240         0.3455        -0.0307   1  13   0.0024   0.0032   0.0046   0.0003   0.0020  -0.0005  -0.00    7.7
2314 304411.600        -1.0265         0.3360        -0.0279   1  13   0.0024   0.0032   0.0046   0.0003   0.0020  -0.0005  -0.00    7.7
2314 304411.650        -1.0270         0.3337        -0.0258   1  13   0.0024   0.0032   0.0046   0.0003   0.0020  -0.0005  -0.00    7.8
2314 304411.700        -1.0282         0.3327        -0.0229   1  13   0.0024   0.0032   0.0046   0.0003   0.0020  -0.0005  -0.00    7.8
2314 304411.750        -1.0295         0.3309        -0.0203   1  13   0.0024   0.0032   0.0046   0.0003   0.0020  -0.0005  -0.00    7.8
2314 304411.800        -1.0291         0.3303        -0.0169   1  13   0.0024   0.0032   0.0046   0.0003   0.0020  -0.0005  -0.00    7.8
2314 304411.850        -1.0279         0.3319        -0.0140   1  13   0.0024   0.0032   0.0046   0.0003   0.0020  -0.0005  -0.00    7.8
2314 304411.900        -1.0253         0.3360        -0.0117   1  13   0.0024   0.0032   0.0046   0.0003   0.0020  -0.0005  -0.00    7.9
2314 304411.950        -1.0216         0.3401        -0.0103   1  13   0.0024   0.0032   0.0046   0.0003   0.0020  -0.0005  -0.00    7.9
2314 304412.000        -1.0196         0.3437        -0.0093   1  13   0.0024   0.0032   0.0046   0.0003   0.0020  -0.0005  -0.00    7.9
2314 304412.050        -1.0181         0.3459        -0.0099   1  13   0.0024   0.0032   0.0046   0.0003   0.0020  -0.0005  -0.00    7.8
2314 304412.100        -1.0172         0.3496        -0.0117   1  13   0.0024   0.0032   0.0046   0.0003   0.0020  -0.0005  -0.00    7.8
2314 304412.150        -1.0157         0.3516        -0.0129   1  13   0.0024   0.0032   0.0046   0.0003   0.0020  -0.0005  -0.00    7.8
2314 304412.200        -1.0140         0.3542        -0.0138   1  13   0.0024   0.0032   0.0046   0.0003   0.0020  -0.0005  -0.00    7.8
2314 304412.250        -1.0127         0.3555        -0.0162   1  13   0.0024   0.0032   0.0046   0.0003   0.0020  -0.0005  -0.00    7.8
2314 304412.300        -1.0120         0.3563        -0.0183   1  13   0.0024   0.0032   0.0046   0.0003   0.0020  -0.0005  -0.00    7.8
2314 304412.350        -1.0112         0.3564        -0.0206   1  13   0.0024   0.0032   0.0046   0.0003   0.0020  -0.0005  -0.00    7.8
2314 304412.400        -1.0122         0.3554        -0.0232   1  13   0.0024   0.0032   0.0046   0.0003   0.0020  -0.0005  -0.00    7.8
2314 304412.450        -1.0150         0.3544        -0.0258   1  13   0.0024   0.0032   0.0046   0.0003   0.0020  -0.0005  -0.00    7.7
2314 304412.500        -1.0174         0.3529        -0.0273   1  13   0.0024   0.0032   0.0046   0.0004   0.0020  -0.0005  -0.00    7.7
2314 304412.550        -1.0212         0.3486        -0.0278   1  13   0.0024   0.0032   0.0046   0.0004   0.0020  -0.0005  -0.00    7.6
2314 304412.600        -1.0235         0.3448        -0.0304   1  13   0.0024   0.0032   0.0046   0.0004   0.0020  -0.0005  -0.00    7.5
2314 304412.650        -1.0250         0.3416        -0.0331   1  13   0.0024   0.0032   0.0046   0.0004   0.0020  -0.0005  -0.00    7.5
2314 304412.700        -1.0269         0.3397        -0.0342   1  13   0.0024   0.0032   0.0046   0.0004   0.0020  -0.0005  -0.00    7.4
2314 304412.750        -1.0273         0.3386        -0.0362   1  13   0.0024   0.0032   0.0046   0.0004   0.0020  -0.0005  -0.00    7.4
2314 304412.800        -1.0295         0.3365        -0.0388   1  13   0.0024   0.0032   0.0046   0.0004   0.0020  -0.0005  -0.00    7.3
2314 304412.850        -1.0314         0.3337        -0.0403   1  13   0.0024   0.0032   0.0046   0.0004   0.0020  -0.0005  -0.00    7.2
2314 304412.900        -1.0327         0.3311        -0.0405   1  13   0.0024   0.0032   0.0046   0.0004   0.0020  -0.0005  -0.00    7.1
2314 304412.950        -1.0344         0.3296        -0.0409   1  13   0.0024   0.0032   0.0046   0.0004   0.0020  -0.0005  -0.00    7.0
2314 304413.000        -1.0349         0.3300        -0.0409   1  13   0.0024   0.0032   0.0046   0.0004   0.0020  -0.0005  -0.00    6.9
2314 304413.050        -1.0367         0.3296        -0.0428   1  13   0.0024   0.0032   0.0046   0.0004   0.0020  -0.0005  -0.00    6.8
2314 304413.100        -1.0395         0.3262        -0.0462   1  13   0.0024   0.0032   0.0046   0.0004   0.0020  -0.0005  -0.00    6.7
2314 304413.150        -1.0408         0.3239        -0.0487   1  13   0.0024   0.0032   0.0046   0.0004   0.0020  -0.0005  -0.00    6.6
2314 304413.200        -1.0430         0.3225        -0.0487   1  13   0.0024   0.0032   0.0046   0.0004   0.0020  -0.0005  -0.00    6.5
2314 304413.250        -1.0445         0.3230        -0.0463   1  13   0.0024   0.0032   0.0046   0.0004   0.0020  -0.0005  -0.00    6.3
2314 304413.300        -1.0454         0.3229        -0.0464   1  13   0.0024   0.0032   0.0046   0.0004   0.0020  -0.0005  -0.00    6.1
2314 304413.350        -1.0434         0.3219        -0.0483   1  13   0.0024   0.0032   0.0046   0.0004   0.0020  -0.0005  -0.00    6.0
2314 304413.400        -1.0405         0.3205        -0.0516   1  13   0.0024   0.0032   0.0046   0.0004   0.0020  -0.0005  -0.00    5.9
2314 304413.450        -1.0371         0.3193        -0.0542   1  13   0.0024   0.0032   0.0046   0.0004   0.0020  -0.0005  -0.00    5.7
2314 304413.500        -1.0350         0.3196        -0.0564   1  13   0.0024   0.0032   0.0046   0.0004   0.0020  -0.0005  -0.00    5.6
2314 304413.550        -1.0344         0.3201        -0.0579   1  13   0.0024   0.0032   0.0046   0.0004   0.0020  -0.0005  -0.00    5.4
2314 304413.600        -1.0344         0.3210        -0.0614   1  13   0.0024   0.0032   0.0046   0.0004   0.0020  -0.0005  -0.00    5.3
2314 304413.650        -1.0324         0.3209        -0.0626   1  13   0.0024   0.0032   0.0046   0.0004   0.0020  -0.0005  -0.00    5.1
2314 304413.700        -1.0067         0.2896         0.0198   1  12   0.0024   0.0032   0.0046   0.0002   0.0020  -0.0004  -0.00    5.0
2314 304413.750        -0.9939         0.2781         0.0857   1  12   0.0024   0.0032   0.0046  -0.0002   0.0019  -0.0002  -0.00    4.9
2314 304413.800        -0.9912         0.2808         0.1362   1  12   0.0024   0.0032   0.0047  -0.0002   0.0019  -0.0001  -0.00    4.8
2314 304413.850        -0.9947         0.2929         0.1736   1  12   0.0024   0.0032   0.0047  -0.0003   0.0019   0.0002  -0.00    4.7
2314 304413.900        -1.0023         0.3107         0.2002   1  12   0.0024   0.0032   0.0047  -0.0003   0.0019   0.0002  -0.00    4.6
2314 304413.950        -1.0121         0.3315         0.2165   1  12   0.0024   0.0032   0.0047  -0.0003   0.0019   0.0002  -0.00    4.5
2314 304414.000        -1.0229         0.3526         0.2222   1  12   0.0024   0.0032   0.0047  -0.0003   0.0019   0.0003  -0.00    4.4
2314 304414.050        -1.0330         0.3721         0.2196   1  12   0.0024   0.0032   0.0047  -0.0003   0.0019   0.0003  -0.00    4.3
2314 304414.100        -1.0425         0.3888         0.2118   1  12   0.0024   0.0032   0.0047  -0.0003   0.0019   0.0002  -0.00    4.2
2314 304414.150        -1.0498         0.4027         0.1986   1  12   0.0024   0.0032   0.0047  -0.0003   0.0019   0.0002  -0.00    4.2
2314 304414.200        -1.0544         0.4126         0.1812   1  12   0.0024   0.0032   0.0047  -0.0003   0.0019   0.0002  -0.00    4.1
2314 304414.250        -1.0571         0.4174         0.1595   1  12   0.0024   0.0032   0.0047  -0.0003   0.0019   0.0002  -0.00    4.0
2314 304414.300        -1.0575         0.4175         0.1344   1  13   0.0024   0.0032   0.0047  -0.0003   0.0019   0.0002  -0.00    4.0
2314 304414.350        -1.0546         0.4128         0.1130   1  13   0.0024   0.0033   0.0048  -0.0005   0.0018   0.0006  -0.00    4.0
2314 304414.400        -1.0518         0.4055         0.0884   1  13   0.0025   0.0033   0.0048  -0.0006   0.0018   0.0007  -0.00    4.0
2314 304414.450        -1.0478         0.3981         0.0628   1  13   0.0025   0.0033   0.0048  -0.0006   0.0017   0.0008  -0.00    3.9
2314 304414.500        -1.0421         0.3915         0.0381   1  13   0.0025   0.0033   0.0049  -0.0007   0.0017   0.0008  -0.00    3.8
2314 304414.550        -1.0358         0.3871         0.0109   1  13   0.0025   0.0033   0.0049  -0.0007   0.0017   0.0009  -0.00    3.8
2314 304414.600        -1.0302         0.3838        -0.0166   1  13   0.0025   0.0033   0.0049  -0.0007   0.0017   0.0009  -0.00    3.7
2314 304414.650        -1.0250         0.3788        -0.0425   1  13   0.0025   0.0033   0.0049  -0.0007   0.0017   0.0009  -0.00    3.7
2314 304414.700        -1.0205         0.3717        -0.0676   1  13   0.0025   0.0033   0.0050  -0.0007   0.0017   0.0009  -0.00    3.6
2314 304414.750        -1.0168         0.3650        -0.0926   1  13   0.0025   0.0033   0.0050  -0.0006   0.0017   0.0009  -0.00    3.6
2314 304414.800        -1.0125         0.3609        -0.1169   1  13   0.0025   0.0033   0.0050  -0.0006   0.0017   0.0009  -0.00    3.6
2314 304414.850        -1.0090         0.3587        -0.1369   1  13   0.0025   0.0033   0.0050  -0.0006   0.0017   0.0009  -0.00    3.5
2314 304414.900        -1.0067         0.3565        -0.1554   1  13   0.0025   0.0033   0.0050  -0.0006   0.0017   0.0009  -0.00    3.5
2314 304414.950        -1.0058         0.3530        -0.1754   1  13   0.0024   0.0033   0.0050  -0.0006   0.0017   0.0009  -0.00    3.4
2314 304415.000        -1.0052         0.3489        -0.1941   1  13   0.0024   0.0033   0.0050  -0.0006   0.0017   0.0008  -0.00    3.4
2314 304415.050        -1.0053         0.3444        -0.2112   1  13   0.0024   0.0033   0.0050  -0.0006   0.0017   0.0008  -0.00    3.3
2314 304415.100        -1.0061         0.3407        -0.2274   1  13   0.0024   0.0033   0.0050  -0.0006   0.0017   0.0008  -0.00    3.3
2314 304415.150        -1.0100         0.3383        -0.2491   1  13   0.0024   0.0033   0.0050  -0.0006   0.0017   0.0007  -0.00    3.0
2314 304415.200        -1.0113         0.3351        -0.2600   1  13   0.0024   0.0033   0.0050  -0.0006   0.0017   0.0007  -0.00    3.1
2314 304415.250        -1.0124         0.3326        -0.2680   1  13   0.0024   0.0033   0.0050  -0.0006   0.0017   0.0007  -0.00    3.1
2314 304415.300        -1.0139         0.3307        -0.2743   1  13   0.0024   0.0033   0.0050  -0.0006   0.0017   0.0007  -0.00    3.0
2314 304415.350        -1.0149         0.3308        -0.2769   2  13   0.0030   0.0039   0.0064  -0.0008   0.0023   0.0016  -0.00    3.0
2314 304415.400        -1.0166         0.3327        -0.2853   1  13   0.0024   0.0033   0.0050  -0.0006   0.0017   0.0007  -0.00    3.1
2314 304415.450        -1.0166         0.3366        -0.2886   1  13   0.0024   0.0033   0.0050  -0.0006   0.0017   0.0007  -0.00    3.0
2314 304415.500        -1.0141         0.3408        -0.2861   2  13   0.0030   0.0039   0.0064  -0.0008   0.0023   0.0016  -0.00    3.0
2314 304415.550        -1.0166         0.3380        -0.2739   1  13   0.0024   0.0033   0.0050  -0.0006   0.0017   0.0007  -0.00    3.3
2314 304415.600        -1.0169         0.3407        -0.2727   1  13   0.0024   0.0033   0.0050  -0.0006   0.0017   0.0007  -0.00    3.2
2314 304415.650        -1.0165         0.3429        -0.2695   1  13   0.0024   0.0033   0.0050  -0.0006   0.0017   0.0007  -0.00    3.2
2314 304415.700        -1.0162         0.3449        -0.2624   1  13   0.0024   0.0033   0.0050  -0.0006   0.0017   0.0007  -0.00    3.2
2314 304415.750        -1.0151         0.3475        -0.2549   1  13   0.0024   0.0033   0.0050  -0.0006   0.0017   0.0007  -0.00    3.1
2314 304415.800        -1.0144         0.3507        -0.2468   1  13   0.0024   0.0033   0.0050  -0.0006   0.0017   0.0007  -0.00    3.1
2314 304415.850        -1.0129         0.3550        -0.2371   1  13   0.0024   0.0033   0.0050  -0.0006   0.0017   0.0007  -0.00    3.0
2314 304415.900        -1.0119         0.3590        -0.2257   1  13   0.0024   0.0033   0.0050  -0.0006   0.0017   0.0007  -0.00    3.0
2314 304415.950        -1.0079         0.3679        -0.2272   2  13   0.0030   0.0039   0.0064  -0.0008   0.0023   0.0016  -0.00    3.0
2314 304416.000        -1.0071         0.3720        -0.2140   2  13   0.0030   0.0039   0.0064  -0.0008   0.0023   0.0016  -0.00    2.7
2314 304416.050        -1.0114         0.3702        -0.1984   1  13   0.0024   0.0033   0.0051  -0.0007   0.0017   0.0008  -0.00    3.0
2314 304416.100        -1.0114         0.3709        -0.1855   1  13   0.0024   0.0033   0.0051  -0.0007   0.0017   0.0008  -0.00    3.0
2314 304416.150        -1.0080         0.3711        -0.1626   1  13   0.0025   0.0033   0.0051  -0.0007   0.0017   0.0009  -0.00    3.3
2314 304416.200        -1.0077         0.3717        -0.1517   1  13   0.0025   0.0033   0.0051  -0.0007   0.0017   0.0010  -0.00    3.3
2314 304416.250        -1.0077         0.3736        -0.1380   1  13   0.0025   0.0033   0.0051  -0.0007   0.0017   0.0010  -0.00    3.3
2314 304416.300        -1.0062         0.3717        -0.1245   1  13   0.0025   0.0033   0.0051  -0.0007   0.0017   0.0010  -0.00    3.1
2314 304416.350        -1.0055         0.3728        -0.1143   1  13   0.0025   0.0033   0.0051  -0.0007   0.0017   0.0010  -0.00    3.1
2314 304416.400        -1.0055         0.3734        -0.1041   1  13   0.0025   0.0033   0.0051  -0.0007   0.0017   0.0010  -0.00    3.0
2314 304416.450        -1.0050         0.3733        -0.0960   1  13   0.0025   0.0033   0.0051  -0.0007   0.0017   0.0010  -0.00    3.0
2314 304416.500        -1.0054         0.3820        -0.1061   2  13   0.0030   0.0039   0.0064  -0.0008   0.0022   0.0016  -0.00    3.0
2314 304416.550        -1.0047         0.3826        -0.0974   2  13   0.0030   0.0039   0.0064  -0.0008   0.0022   0.0016  -0.00    3.0
2314 304416.600        -1.0051         0.3841        -0.0880   2  13   0.0030   0.0039   0.0064  -0.0008   0.0023   0.0016  -0.00    2.8
2314 304416.650        -1.0059         0.3846        -0.0790   2  13   0.0030   0.0039   0.0064  -0.0008   0.0023   0.0016  -0.00    2.4
2314 304416.700        -1.0070         0.3859        -0.0718   2  13   0.0030   0.0039   0.0064  -0.0008   0.0023   0.0016  -0.00    2.4
2314 304416.750        -1.0080         0.3855        -0.0669   2  13   0.0030   0.0039   0.0064  -0.0008   0.0023   0.0015  -0.00    1.9
2314 304416.800        -1.0095         0.3866        -0.0600   2  13   0.0030   0.0039   0.0064  -0.0008   0.0023   0.0015  -0.00    1.8
2314 304416.850        -1.0126         0.3873        -0.0533   2  13   0.0030   0.0039   0.0064  -0.0008   0.0023   0.0015  -0.00    1.9
2314 304416.900        -1.0155         0.3868        -0.0466   2  13   0.0030   0.0039   0.0064  -0.0008   0.0023   0.0015  -0.00    2.0
2314 304416.950        -1.0167         0.3880        -0.0386   2  13   0.0030   0.0039   0.0064  -0.0008   0.0023   0.0015  -0.00    2.4
2314 304417.000        -1.0168         0.3890        -0.0317   2  13   0.0030   0.0039   0.0064  -0.0008   0.0023   0.0015  -0.00    2.3
2314 304417.050        -1.0167         0.3899        -0.0264   2  13   0.0030   0.0039   0.0064  -0.0008   0.0023   0.0015  -0.00    1.9
2314 304417.100        -1.0166         0.3906        -0.0190   2  13   0.0030   0.0039   0.0064  -0.0008   0.0023   0.0015  -0.00    1.9
2314 304417.150        -1.0138         0.3916        -0.0119   2  12   0.0030   0.0039   0.0064  -0.0008   0.0023   0.0015  -0.00    2.4
2314 304417.200        -1.0041         0.3965        -0.0094   1  12   0.0024   0.0033   0.0050  -0.0006   0.0018   0.0007  -0.00    3.2
2314 304417.250        -1.0034         0.3968        -0.0023   1  12   0.0024   0.0033   0.0050  -0.0006   0.0018   0.0007  -0.00    3.2
2314 304417.300        -1.0013         0.3989         0.0043   1  12   0.0024   0.0033   0.0050  -0.0006   0.0018   0.0007  -0.00    3.1
2314 304417.350        -0.9990         0.4006         0.0118   1  12   0.0024   0.0033   0.0050  -0.0006   0.0018   0.0007  -0.00    3.1
2314 304417.400        -0.9962         0.4017         0.0186   1  12   0.0024   0.0033   0.0050  -0.0006   0.0018   0.0008  -0.00    3.1
2314 304417.450        -0.9940         0.4035         0.0229   1  12   0.0024   0.0033   0.0050  -0.0006   0.0018   0.0008  -0.00    3.1
2314 304417.500        -0.9921         0.4069         0.0250   1  12   0.0024   0.0033   0.0050  -0.0006   0.0018   0.0008  -0.00    3.1
2314 304417.550        -0.9910         0.4083         0.0282   1  12   0.0024   0.0033   0.0050  -0.0006   0.0018   0.0008  -0.00    3.0
2314 304417.600        -0.9921         0.4088         0.0318   1  12   0.0024   0.0033   0.0050  -0.0006   0.0018   0.0008  -0.00    3.0
2314 304417.650        -1.0003         0.4036         0.0401   2  12   0.0030   0.0039   0.0064  -0.0008   0.0023   0.0016  -0.00    3.0
2314 304417.700        -0.9983         0.4027         0.0427   2  12   0.0030   0.0039   0.0064  -0.0008   0.0023   0.0015  -0.00    3.0
2314 304417.750        -0.9963         0.4028         0.0452   2  12   0.0030   0.0039   0.0064  -0.0008   0.0023   0.0015  -0.00    1.5
2314 304417.800        -0.9935         0.4026         0.0479   2  12   0.0030   0.0039   0.0064  -0.0007   0.0023   0.0015  -0.00    1.5
2314 304417.850        -0.9891         0.4016         0.0517   2  12   0.0030   0.0039   0.0064  -0.0007   0.0023   0.0015  -0.00    1.8
2314 304417.900        -0.9864         0.4015         0.0573   2  12   0.0030   0.0039   0.0064  -0.0007   0.0023   0.0015  -0.00    1.6
2314 304417.950        -0.9824         0.4054         0.0621   2  12   0.0030   0.0039   0.0063  -0.0007   0.0023   0.0015  -0.00    1.5
2314 304418.000        -0.9790         0.4093         0.0651   2  12   0.0030   0.0039   0.0063  -0.0007   0.0023   0.0015  -0.00    1.3
2314 304418.050        -0.9766         0.4102         0.0654   2  12   0.0030   0.0039   0.0063  -0.0007   0.0023   0.0015  -0.00    1.3
2314 304418.100        -0.9746         0.4106         0.0626   2  12   0.0030   0.0039   0.0063  -0.0006   0.0023   0.0015  -0.00    1.3
2314 304418.150        -0.9736         0.4132         0.0586   2  13   0.0030   0.0039   0.0063  -0.0006   0.0023   0.0015  -0.00    1.4
2314 304418.200        -0.9735         0.4182         0.0536   2  13   0.0030   0.0039   0.0063  -0.0007   0.0023   0.0015  -0.00    1.1
2314 304418.250        -0.9748         0.4209         0.0486   2  13   0.0030   0.0039   0.0063  -0.0007   0.0023   0.0015  -0.00    1.2
2314 304418.300        -0.9785         0.4219         0.0435   2  13   0.0030   0.0039   0.0063  -0.0007   0.0023   0.0015  -0.00    1.2
2314 304418.350        -0.9833         0.4222         0.0383   2  13   0.0030   0.0039   0.0063  -0.0007   0.0023   0.0015  -0.00    1.3
2314 304418.400        -0.9865         0.4229         0.0322   2  13   0.0030   0.0039   0.0063  -0.0007   0.0023   0.0015  -0.00    1.8
2314 304418.450        -0.9876         0.4247         0.0260   2  13   0.0030   0.0039   0.0063  -0.0007   0.0023   0.0015  -0.00    1.5
2314 304418.500        -0.9893         0.4264         0.0201   2  13   0.0030   0.0039   0.0063  -0.0006   0.0023   0.0015  -0.00    1.5
2314 304418.550        -0.9898         0.4234         0.0185   2  13   0.0030   0.0039   0.0063  -0.0006   0.0023   0.0015  -0.00    1.6
2314 304418.600        -0.9888         0.4218         0.0166   2  13   0.0030   0.0039   0.0063  -0.0006   0.0023   0.0015  -0.00    1.7
2314 304418.650        -0.9854         0.4275         0.0135   2  13   0.0030   0.0039   0.0063  -0.0006   0.0023   0.0015  -0.00    2.0
2314 304418.700        -0.9805         0.4328         0.0124   2  13   0.0030   0.0039   0.0063  -0.0006   0.0024   0.0015  -0.00    1.8
2314 304418.750        -0.9771         0.4333         0.0094   2  13   0.0030   0.0039   0.0063  -0.0006   0.0024   0.0014  -0.00    1.9
2314 304418.800        -0.9745         0.4313         0.0057   2  13   0.0030   0.0039   0.0063  -0.0006   0.0024   0.0014  -0.00    1.9
2314 304418.850        -0.9719         0.4292         0.0039   2  13   0.0030   0.0039   0.0063  -0.0006   0.0024   0.0014  -0.00    2.0
2314 304418.900        -0.9696         0.4275         0.0035   2  13   0.0030   0.0039   0.0063  -0.0006   0.0024   0.0014  -0.00    2.1
2314 304418.950        -0.9609         0.4308         0.0016   1  13   0.0024   0.0032   0.0047  -0.0003   0.0019   0.0002  -0.00    3.4
2314 304419.000        -0.9633         0.4273         0.0004   1  13   0.0024   0.0032   0.0047  -0.0003   0.0019   0.0002  -0.00    3.5
2314 304419.050        -0.9675         0.4247         0.0010   1  13   0.0024   0.0032   0.0047  -0.0003   0.0019   0.0002  -0.00    3.6
2314 304419.100        -0.9733         0.4230         0.0034   1  13   0.0024   0.0032   0.0047  -0.0003   0.0019   0.0002  -0.00    3.7
2314 304419.150        -0.9784         0.4221         0.0066   1  13   0.0024   0.0032   0.0047  -0.0003   0.0019   0.0002  -0.00    3.8
2314 304419.200        -0.9817         0.4226         0.0082   1  13   0.0024   0.0032   0.0047  -0.0003   0.0019   0.0002  -0.00    3.9
2314 304419.250        -0.9835         0.4241         0.0097   1  13   0.0024   0.0032   0.0047  -0.0003   0.0019   0.0002  -0.00    4.0
2314 304419.300        -0.9853         0.4244         0.0121   1  13   0.0024   0.0032   0.0047  -0.0003   0.0019   0.0002  -0.00    4.1
2314 304419.350        -0.9870         0.4238         0.0122   1  13   0.0024   0.0032   0.0047  -0.0003   0.0019   0.0002  -0.00    4.2
2314 304419.400        -0.9886         0.4229         0.0100   1  13   0.0024   0.0032   0.0047  -0.0003   0.0019   0.0002  -0.00    4.3
2314 304419.450        -0.9888         0.4230         0.0093   1  13   0.0024   0.0032   0.0047  -0.0003   0.0019   0.0002  -0.00    4.4
2314 304419.500        -0.9865         0.4228         0.0097   1  13   0.0024   0.0032   0.0047  -0.0003   0.0019   0.0002  -0.00    4.5
2314 304419.550        -0.9840         0.4222         0.0095   1  13   0.0024   0.0032   0.0047  -0.0003   0.0019   0.0002  -0.00    4.5
2314 304419.600        -0.9820         0.4215         0.0100   1  13   0.0024   0.0032   0.0047  -0.0003   0.0019   0.0002  -0.00    4.6
2314 304419.650        -0.9811         0.4198         0.0081   1  13   0.0024   0.0032   0.0047  -0.0003   0.0019   0.0002  -0.00    4.7
2314 304419.700        -0.9808         0.4198         0.0069   1  13   0.0024   0.0032   0.0047  -0.0003   0.0019   0.0002  -0.00    4.8
2314 304419.750        -0.9809         0.4195         0.0042   1  13   0.0024   0.0032   0.0047  -0.0003   0.0019   0.0002  -0.00    4.8
2314 304419.800        -0.9804         0.4182        -0.0011   1  13   0.0024   0.0032   0.0047  -0.0003   0.0019   0.0002  -0.00    4.9
2314 304419.850        -0.9799         0.4172        -0.0055   1  13   0.0024   0.0032   0.0047  -0.0003   0.0019   0.0002  -0.00    4.9
2314 304419.900        -0.9836         0.4124        -0.0119   1  13   0.0024   0.0032   0.0047  -0.0003   0.0019   0.0002  -0.00    3.8
2314 304419.950        -0.9831         0.4119        -0.0155   1  13   0.0024   0.0032   0.0047  -0.0003   0.0019   0.0002  -0.00    3.8
2314 304420.000        -0.9833         0.4118        -0.0184   1  13   0.0024   0.0032   0.0047  -0.0003   0.0019   0.0002  -0.00    3.8
2314 304420.050        -0.9845         0.4110        -0.0197   1  13   0.0024   0.0032   0.0047  -0.0003   0.0019   0.0002  -0.00    3.8
2314 304420.100        -0.9847         0.4112        -0.0213   1  13   0.0024   0.0032   0.0047  -0.0003   0.0019   0.0002  -0.00    3.9
2314 304420.150        -0.9835         0.4112        -0.0222   1  13   0.0024   0.0032   0.0047  -0.0003   0.0019   0.0004  -0.00    4.0
2314 304420.200        -0.9831         0.4117        -0.0246   1  13   0.0024   0.0032   0.0048  -0.0004   0.0019   0.0004  -0.00    4.0
2314 304420.250        -0.9836         0.4127        -0.0263   1  13   0.0024   0.0032   0.0048  -0.0004   0.0019   0.0004  -0.00    4.0
2314 304420.300        -0.9851         0.4131        -0.0277   1  13   0.0024   0.0032   0.0048  -0.0004   0.0019   0.0004  -0.00    4.1
2314 304420.350        -0.9859         0.4131        -0.0286   1  13   0.0024   0.0032   0.0048  -0.0004   0.0019   0.0005  -0.00    4.1
2314 304420.400        -0.9854         0.4129        -0.0286   1  13   0.0024   0.0032   0.0048  -0.0003   0.0019   0.0004  -0.00    4.1
2314 304420.450        -0.9846         0.4135        -0.0279   1  13   0.0024   0.0032   0.0048  -0.0003   0.0019   0.0004  -0.00    4.2
2314 304420.500        -0.9891         0.4103        -0.0280   1  13   0.0024   0.0032   0.0048  -0.0003   0.0019   0.0004  -0.00    3.0
2314 304420.550        -0.9903         0.4095        -0.0266   1  13   0.0024   0.0032   0.0048  -0.0003   0.0019   0.0004  -0.00    3.0
2314 304420.600        -0.9905         0.4087        -0.0267   1  13   0.0024   0.0032   0.0048  -0.0003   0.0019   0.0003  -0.00    3.1
2314 304420.650        -0.9898         0.4087        -0.0277   1  13   0.0024   0.0032   0.0048  -0.0003   0.0019   0.0003  -0.00    3.1
2314 304420.700        -0.9888         0.4086        -0.0277   1  13   0.0024   0.0032   0.0048  -0.0003   0.0019   0.0003  -0.00    3.1
2314 304420.750        -0.9885         0.4088        -0.0272   1  13   0.0024   0.0032   0.0048  -0.0003   0.0019   0.0002  -0.00    3.1
2314 304420.800        -0.9887         0.4084        -0.0256   1  13   0.0024   0.0032   0.0048  -0.0003   0.0019   0.0002  -0.00    3.1
2314 304420.850        -0.9887         0.4079        -0.0261   1  13   0.0024   0.0032   0.0048  -0.0003   0.0019   0.0001  -0.00    3.1
2314 304420.900        -0.9894         0.4080        -0.0247   1  13   0.0024   0.0032   0.0048  -0.0003   0.0019   0.0001  -0.00    3.2
2314 304420.950        -0.9903         0.4071        -0.0245   1  13   0.0024   0.0032   0.0048  -0.0003   0.0019  -0.0001  -0.00    3.2
2314 304421.000        -0.9905         0.4062        -0.0236   1  13   0.0023   0.0032   0.0048  -0.0003   0.0019  -0.0001  -0.00    3.2
2314 304421.050        -0.9905         0.4057        -0.0237   1  13   0.0023   0.0032   0.0047  -0.0003   0.0019  -0.0002  -0.00    3.2
2314 304421.100        -0.9904         0.4061        -0.0245   1  13   0.0023   0.0032   0.0047  -0.0003   0.0019  -0.0002  -0.00    3.2
2314 304421.150        -0.9898         0.4082        -0.0230   1  13   0.0023   0.0032   0.0047  -0.0003   0.0019  -0.0002  -0.00    3.2
2314 304421.200        -0.9894         0.4098        -0.0237   1  13   0.0023   0.0032   0.0047  -0.0003   0.0019  -0.0002  -0.00    3.3
2314 304421.250        -0.9898         0.4102        -0.0223   1  13   0.0023   0.0032   0.0047  -0.0003   0.0019  -0.0002  -0.00    3.3
2314 304421.300        -0.9900         0.4109        -0.0204   1  13   0.0023   0.0032   0.0047  -0.0003   0.0019  -0.0002  -0.00    3.3
2314 304421.350        -0.9904         0.4114        -0.0186   1  13   0.0023   0.0032   0.0047  -0.0003   0.0019  -0.0003  -0.00    3.3
2314 304421.400        -0.9905         0.4116        -0.0162   1  13   0.0023   0.0032   0.0047  -0.0003   0.0019  -0.0003  -0.00    3.3
2314 304421.450        -0.9905         0.4114        -0.0166   1  13   0.0023   0.0032   0.0047  -0.0003   0.0019  -0.0003  -0.00    3.3
2314 304421.500        -1.0105         0.4369        -0.0918   1  14   0.0023   0.0032   0.0047  -0.0003   0.0019  -0.0003  -0.00    3.4
2314 304421.550        -1.0183         0.4460        -0.1514   1  14   0.0024   0.0033   0.0048  -0.0004   0.0018   0.0003  -0.00    3.4
2314 304421.600        -1.0172         0.4434        -0.2019   1  14   0.0024   0.0033   0.0048  -0.0005   0.0018   0.0005  -0.00    3.4
2314 304421.650        -1.0071         0.4319        -0.2305   1  14   0.0024   0.0033   0.0048  -0.0005   0.0018   0.0005  -0.00    3.5
2314 304421.700        -0.9947         0.4212        -0.2541   1  14   0.0024   0.0033   0.0048  -0.0005   0.0017   0.0006  -0.00    3.5
2314 304421.750        -0.9806         0.4073        -0.2663   1  14   0.0024   0.0033   0.0049  -0.0005   0.0017   0.0006  -0.00    3.5
2314 304421.800        -0.9691         0.3939        -0.2695   1  14   0.0024   0.0033   0.0049  -0.0005   0.0017   0.0006  -0.00    3.6
2314 304421.850        -0.9585         0.3812        -0.2626   1  14   0.0024   0.0032   0.0049  -0.0004   0.0018   0.0005  -0.00    3.6
2314 304421.900        -0.9491         0.3708        -0.2479   1  14   0.0024   0.0032   0.0049  -0.0004   0.0018   0.0005  -0.00    3.6
2314 304421.950        -0.9425         0.3628        -0.2255   1  14   0.0024   0.0032   0.0049  -0.0003   0.0018   0.0005  -0.00    3.7
2314 304422.000        -0.9410         0.3575        -0.2064   1  14   0.0023   0.0032   0.0049  -0.0002   0.0018   0.0004  -0.00    3.7
2314 304422.050        -0.9448         0.3561        -0.1901   1  14   0.0023   0.0032   0.0049  -0.0002   0.0018   0.0004  -0.00    3.8
2314 304422.100        -0.9478         0.3555        -0.1691   1  14   0.0023   0.0032   0.0049   0.0000   0.0019   0.0003  -0.00    3.8
2314 304422.150        -0.9533         0.3538        -0.1403   1  14   0.0023   0.0032   0.0049   0.0002   0.0019   0.0002  -0.00    3.8
2314 304422.200        -0.9592         0.3525        -0.1052   1  14   0.0023   0.0032   0.0049   0.0002   0.0019   0.0002  -0.00    3.9
2314 304422.250        -0.9663         0.3540        -0.0723   1  14   0.0023   0.0032   0.0049   0.0002   0.0019  -0.0001  -0.00    3.9
2314 304422.300        -0.9738         0.3573        -0.0422   1  14   0.0023   0.0032   0.0049   0.0003   0.0019  -0.0002  -0.00    3.9
2314 304422.350        -0.9790         0.3661        -0.0118   1  14   0.0023   0.0032   0.0048   0.0003   0.0019  -0.0002  -0.00    3.9
2314 304422.400        -0.9843         0.3764         0.0176   1  14   0.0023   0.0032   0.0048   0.0003   0.0019  -0.0003  -0.00    3.9
2314 304422.450        -0.9911         0.3885         0.0415   1  14   0.0023   0.0032   0.0048   0.0003   0.0019  -0.0003  -0.00    3.9
2314 304422.500        -0.9958         0.3981         0.0668   1  14   0.0023   0.0032   0.0048   0.0003   0.0019  -0.0003  -0.00    3.9
2314 304422.550        -1.0002         0.4099         0.0923   1  14   0.0023   0.0032   0.0048   0.0003   0.0019  -0.0003  -0.00    3.9
2314 304422.600        -1.0024         0.4204         0.1183   1  14   0.0023   0.0032   0.0048   0.0003   0.0019  -0.0003  -0.00    3.9
2314 304422.650        -1.0036         0.4288         0.1392   1  14   0.0023   0.0032   0.0048   0.0003   0.0019  -0.0004  -0.00    4.0
2314 304422.700        -1.0055         0.4388         0.1554   1  14   0.0023   0.0032   0.0048   0.0003   0.0020  -0.0004  -0.00    4.0
2314 304422.750        -1.0061         0.4484         0.1672   1  14   0.0023   0.0032   0.0048   0.0003   0.0020  -0.0004  -0.00    4.0
2314 304422.800        -1.0070         0.4543         0.1752   1  14   0.0023   0.0032   0.0048   0.0003   0.0020  -0.0004  -0.00    4.0
2314 304422.850        -1.0075         0.4578         0.1829   1  14   0.0023   0.0032   0.0048   0.0003   0.0020  -0.0004  -0.00    4.0
2314 304422.900        -1.0072         0.4631         0.1892   1  14   0.0023   0.0032   0.0047   0.0003   0.0020  -0.0004  -0.00    4.0
2314 304422.950        -1.0063         0.4692         0.1909   1  14   0.0023   0.0032   0.0047   0.0003   0.0020  -0.0004  -0.00    4.0
2314 304423.000        -1.0043         0.4718         0.1908   1  14   0.0023   0.0032   0.0047   0.0003   0.0020  -0.0004  -0.00    4.0
2314 304423.050        -1.0027         0.4716         0.1867   1  14   0.0023   0.0032   0.0047   0.0003   0.0020  -0.0004  -0.00    4.0
2314 304423.100        -1.0009         0.4693         0.1821   1  14   0.0023   0.0032   0.0047   0.0003   0.0020  -0.0004  -0.00    4.1
2314 304423.150        -0.9989         0.4680         0.1769   1  14   0.0023   0.0032   0.0047   0.0003   0.0020  -0.0005  -0.00    4.1
2314 304423.200        -0.9965         0.4659         0.1713   1  14   0.0023   0.0032   0.0047   0.0003   0.0020  -0.0005  -0.00    4.1
2314 304423.250        -0.9946         0.4622         0.1621   1  14   0.0023   0.0032   0.0047   0.0003   0.0020  -0.0005  -0.00    4.1
2314 304423.300        -0.9923         0.4564         0.1537   1  14   0.0023   0.0032   0.0047   0.0001   0.0019  -0.0004  -0.00    4.1
2314 304423.350        -0.9904         0.4507         0.1452   1  14   0.0023   0.0032   0.0047  -0.0002   0.0019  -0.0003  -0.00    4.2
2314 304423.400        -0.9890         0.4441         0.1378   1  14   0.0023   0.0032   0.0047  -0.0003   0.0019  -0.0003  -0.00    4.2
2314 304423.450        -0.9882         0.4382         0.1304   1  14   0.0023   0.0032   0.0047  -0.0003   0.0019  -0.0003  -0.00    4.2
2314 304423.500        -0.9877         0.4328         0.1229   1  14   0.0023   0.0032   0.0047  -0.0002   0.0019  -0.0003  -0.00    4.2
2314 304423.550        -0.9873         0.4281         0.1163   1  14   0.0023   0.0032   0.0047  -0.0002   0.0019  -0.0004  -0.00    3.0
2314 304423.600        -0.9869         0.4250         0.1059   1  14   0.0023   0.0032   0.0047  -0.0001   0.0019  -0.0004  -0.00    3.1
2314 304423.650        -0.9869         0.4221         0.0947   1  14   0.0023   0.0032   0.0047   0.0001   0.0019  -0.0005  -0.00    3.1
2314 304423.700        -0.9875         0.4200         0.0848   1  14   0.0023   0.0032   0.0047   0.0002   0.0019  -0.0005  -0.00    3.2
2314 304423.750        -0.9879         0.4187         0.0756   1  14   0.0023   0.0032   0.0047   0.0002   0.0019  -0.0005  -0.00    3.3
2314 304423.800        -0.9881         0.4174         0.0659   1  14   0.0023   0.0032   0.0047   0.0002   0.0019  -0.0005  -0.00    3.4
2314 304423.850        -0.9874         0.4159         0.0551   1  14   0.0023   0.0032   0.0047   0.0003   0.0019  -0.0005  -0.00    3.4
2314 304423.900        -0.9877         0.4148         0.0472   1  14   0.0023   0.0032   0.0047   0.0003   0.0019  -0.0005  -0.00    3.5
2314 304423.950        -0.9881         0.4138         0.0387   1  14   0.0023   0.0032   0.0047   0.0003   0.0019  -0.0006  -0.00    3.6
2314 304424.000        -0.9881         0.4143         0.0284   1  14   0.0023   0.0032   0.0047   0.0003   0.0020  -0.0006  -0.00    3.6
2314 304424.050        -0.9883         0.4148         0.0208   1  14   0.0023   0.0032   0.0047   0.0003   0.0020  -0.0006  -0.00    3.7
2314 304424.100        -0.9882         0.4145         0.0117   1  14   0.0023   0.0032   0.0047   0.0003   0.0020  -0.0006  -0.00    3.8
2314 304424.150        -0.9884         0.4138         0.0049   1  14   0.0023   0.0032   0.0047   0.0003   0.0020  -0.0006  -0.00    3.8
2314 304424.200        -0.9879         0.4131        -0.0023   1  14   0.0023   0.0032   0.0047   0.0003   0.0020  -0.0006  -0.00    3.9
2314 304424.250        -0.9869         0.4110        -0.0113   1  14   0.0023   0.0032   0.0047   0.0003   0.0020  -0.0006  -0.00    4.0
2314 304424.300        -0.9873         0.4085        -0.0190   1  14   0.0023   0.0032   0.0046   0.0003   0.0020  -0.0006  -0.00    4.0
2314 304424.350        -0.9873         0.4064        -0.0274   1  14   0.0023   0.0032   0.0046   0.0003   0.0020  -0.0006  -0.00    4.1
2314 304424.400        -0.9872         0.4053        -0.0369   1  14   0.0023   0.0032   0.0046   0.0003   0.0020  -0.0006  -0.00    4.2
2314 304424.450        -0.9866         0.4033        -0.0456   1  14   0.0023   0.0032   0.0046   0.0003   0.0020  -0.0006  -0.00    4.3
2314 304424.500        -0.9862         0.4008        -0.0527   1  14   0.0023   0.0032   0.0046   0.0003   0.0020  -0.0006  -0.00    4.3
2314 304424.550        -0.9862         0.3989        -0.0568   1  14   0.0023   0.0032   0.0046   0.0003   0.0020  -0.0006  -0.00    4.4
2314 304424.600        -0.9854         0.3983        -0.0604   1  14   0.0023   0.0032   0.0046   0.0003   0.0020  -0.0006  -0.00    4.5
2314 304424.650        -0.9848         0.3970        -0.0630   1  14   0.0023   0.0032   0.0046   0.0003   0.0020  -0.0006  -0.00    4.5
2314 304424.700        -0.9845         0.3968        -0.0649   1  14   0.0023   0.0032   0.0046   0.0003   0.0020  -0.0006  -0.00    4.6
2314 304424.750        -0.9847         0.3961        -0.0661   1  14   0.0023   0.0032   0.0046   0.0003   0.0020  -0.0006  -0.00    4.6
2314 304424.800        -0.9847         0.3967        -0.0657   1  14   0.0023   0.0032   0.0046   0.0003   0.0020  -0.0006  -0.00    4.7
2314 304424.850        -0.9848         0.3975        -0.0640   1  14   0.0023   0.0032   0.0046   0.0003   0.0020  -0.0006  -0.00    4.7
2314 304424.900        -0.9851         0.3990        -0.0629   1  14   0.0023   0.0032   0.0046   0.0003   0.0020  -0.0006  -0.00    4.7
2314 304424.950        -0.9861         0.4002        -0.0616   1  14   0.0023   0.0032   0.0046   0.0003   0.0020  -0.0006  -0.00    4.7
2314 304425.000        -0.9878         0.4012        -0.0606   1  14   0.0023   0.0032   0.0046   0.0003   0.0020  -0.0006  -0.00    4.7
2314 304425.050        -0.9883         0.4022        -0.0585   1  14   0.0023   0.0032   0.0046   0.0003   0.0020  -0.0006  -0.00    4.7
2314 304425.100        -0.9890         0.4026        -0.0591   1  14   0.0023   0.0032   0.0046   0.0003   0.0020  -0.0006  -0.00    4.8
2314 304425.150        -0.9898         0.4017        -0.0600   1  14   0.0023   0.0032   0.0046   0.0003   0.0020  -0.0006  -0.00    4.8
2314 304425.200        -0.9898         0.4010        -0.0598   1  14   0.0023   0.0032   0.0046   0.0003   0.0020  -0.0006  -0.00    4.8
2314 304425.250        -0.9892         0.4013        -0.0588   1  14   0.0023   0.0032   0.0046   0.0003   0.0020  -0.0006  -0.00    4.8
2314 304425.300        -0.9885         0.4014        -0.0577   1  14   0.0023   0.0032   0.0046   0.0003   0.0020  -0.0006  -0.00    4.8
2314 304425.350        -0.9885         0.4009        -0.0556   1  14   0.0023   0.0032   0.0046   0.0003   0.0020  -0.0006  -0.00    4.9
2314 304425.400        -0.9886         0.4007        -0.0515   1  14   0.0023   0.0032   0.0046   0.0003   0.0020  -0.0006  -0.00    4.9
2314 304425.450        -0.9877         0.4007        -0.0500   1  14   0.0023   0.0032   0.0046   0.0003   0.0020  -0.0006  -0.00    4.9
2314 304425.500        -0.9861         0.4006        -0.0503   1  14   0.0023   0.0032   0.0046   0.0003   0.0020  -0.0006  -0.00    4.9
2314 304425.550        -0.9855         0.4016        -0.0496   1  14   0.0023   0.0032   0.0046   0.0003   0.0020  -0.0006  -0.00    4.9
2314 304425.600        -0.9847         0.4010        -0.0512   1  14   0.0023   0.0032   0.0046   0.0003   0.0020  -0.0006  -0.00    4.9
2314 304425.650        -0.9846         0.3998        -0.0532   1  14   0.0023   0.0032   0.0046   0.0003   0.0020  -0.0006  -0.00    5.0
2314 304425.700        -0.9846         0.4000        -0.0549   1  14   0.0023   0.0032   0.0046   0.0003   0.0020  -0.0006  -0.00    5.0
2314 304425.750        -0.9842         0.3995        -0.0571   1  14   0.0023   0.0032   0.0046   0.0003   0.0020  -0.0006  -0.00    5.0
2314 304425.800        -0.9838         0.3996        -0.0587   1  14   0.0023   0.0032   0.0046   0.0003   0.0020  -0.0006  -0.00    5.0
2314 304425.850        -0.9845         0.3995        -0.0594   1  14   0.0023   0.0032   0.0046   0.0003   0.0020  -0.0006  -0.00    5.0
2314 304425.900        -0.9852         0.3992        -0.0599   1  14   0.0023   0.0032   0.0046   0.0003   0.0020  -0.0006  -0.00    5.0
2314 304425.950        -0.9858         0.3989        -0.0607   1  14   0.0023   0.0032   0.0046   0.0003   0.0020  -0.0006  -0.00    5.0
2314 304426.000        -0.9861         0.3992        -0.0600   1  14   0.0023   0.0032   0.0046   0.0003   0.0020  -0.0006  -0.00    5.1
2314 304426.050        -0.9866         0.3994        -0.0605   1  14   0.0023   0.0032   0.0046   0.0003   0.0020  -0.0006  -0.00    5.1
2314 304426.100        -0.9878         0.3993        -0.0590   1  14   0.0023   0.0032   0.0046   0.0003   0.0020  -0.0007  -0.00    3.0
2314 304426.150        -0.9881         0.3992        -0.0592   1  14   0.0023   0.0032   0.0046   0.0003   0.0020  -0.0007  -0.00    3.1
2314 304426.200        -0.9876         0.3988        -0.0587   1  14   0.0023   0.0032   0.0046   0.0003   0.0020  -0.0007  -0.00    3.1
2314 304426.250        -0.9879         0.3992        -0.0574   1  14   0.0023   0.0032   0.0046   0.0003   0.0020  -0.0007  -0.00    3.2
2314 304426.300        -0.9876         0.3998        -0.0573   1  14   0.0023   0.0032   0.0046   0.0003   0.0020  -0.0007  -0.00    3.2
2314 304426.350        -0.9873         0.4008        -0.0561   1  14   0.0023   0.0032   0.0046   0.0003   0.0020  -0.0007  -0.00    3.2
